cid,poi_name,website,lat,lng,price_range_icons,reviews_no,price_range,tags,hours,photos,phone,reservations,online_visibility,address_text,is_closed,country,traffic,kwrd
0x1459a10022210537:0x63cd3dbc915ff5f1,Sultan Restaurant,,29.540509,30.979346,,1,,['Restaurant'],,Photos,011 22202309,,,"GXRH+7Q7 Sultan Restaurant, Fanous, Tamiya, Faiyum Governorate 2972678",,EG,,restaurants
0x1459a17425175d57:0xfb4eac35f1f2d9d0,مطعم ع الصاج,,29.5397456,30.9792021,,2,,['Restaurant'],,,,,,"GXQH+VMW مطعم ع الصاج, Fanous, Tamiya, Faiyum Governorate 2972665",,EG,,restaurants
0x14599f3a3857e58d:0xc4d7abc2b5af6398,The Kingdom,,29.4749583,30.9562719,,2,,['Chicken restaurant'],,3 Photos,011 48359087,,,"FXF4+XGJ The Kingdom, Madinet Tameyah, Tamiya, Faiyum Governorate 2970283",,EG,,restaurants
0x145840cdc805fb67:0x4d7be0ca74c508d5,The Blue Restaurant & Grill,https://www.kempinski.com,30.0386822,31.230666,$$,123,Moderately expensive,['Grill'],"{'Saturday': '6:30–11\u202fAM', 'Sunday': '6:30–11\u202fAM', 'Monday': '6:30–11\u202fAM', 'Tuesday': '6:30–11\u202fAM', 'Wednesday': '6:30–11\u202fAM', 'Thursday': '6:30–11\u202fAM', 'Friday': '6:30–11\u202fAM'}",127+ Photos,02 27980000,,,"The Blue Restaurant & Grill, 12 Ahmed Ragheb, Qasr El Nil, Cairo Governorate 11519",,EG,,restaurants
0x14583e0e3b267ee3:0x4b7ea6c1067ccbcd,Windows Restaurant,https://www.citystarshotels.com,30.0741874,31.3439885,,719,,"['Buffet restaurant', 'Restaurant']","{'Saturday': 'Open 24 hours', 'Sunday': 'Open 24 hours', 'Monday': 'Open 24 hours', 'Tuesday': 'Open 24 hours', 'Wednesday': 'Open 24 hours', 'Thursday': 'Open 24 hours', 'Friday': 'Open 24 hours'}",175+ Photos,02 24803000,,,"Windows Restaurant, Ali Rasheed, Masaken Al Mohandesin, Nasr City, Cairo Governorate 11766",,EG,,restaurants
0x145815c93997462b:0xc10c3656b8fcf60,Al Khal Egyptian Restaurant,https://www.menu.citystarshotels.com,30.0724124,31.3480392,$$,1983,Moderately expensive,['Restaurant'],"{'Saturday': '1\u202fPM–12\u202fAM', 'Sunday': '1\u202fPM–12\u202fAM', 'Monday': '1\u202fPM–12\u202fAM', 'Tuesday': '1\u202fPM–12\u202fAM', 'Wednesday': '1\u202fPM–12\u202fAM', 'Thursday': '1\u202fPM–12\u202fAM', 'Friday': '1\u202fPM–12\u202fAM'}",819+ Photos,02 24800009,"[['https://widget.servmeco.com/?oid=1364', 'servmeco.com', None, None, ',AOvVaw2n40l1ithre7pH0kLf6VkK,,0ahUKEwj5ktO6udOMAxVD8MkDHW5kFfMQ2ZABCNUBKBQ,']]",,"Al Khal Egyptian Restaurant, Omar Ibn El-Khattab, Masaken Al Mohandesin, Heliopolis, Cairo Governorate 11737",,EG,,restaurants
0x145823485a14e78b:0xa664e357c2f92618,Shajarat Al-durr Restaurant مطعم شجرة الدر,https://www.shajarataldurr.foodics.online,30.0201234,31.4952141,,4697,,"['Egyptian restaurant', 'Grill', 'Barbecue restaurant', 'Family restaurant', 'Fine dining restaurant', 'Middle Eastern restaurant']","{'Saturday': '12\u202fPM–1\u202fAM', 'Sunday': '12\u202fPM–1\u202fAM', 'Monday': '12\u202fPM–1\u202fAM', 'Tuesday': '12\u202fPM–1\u202fAM', 'Wednesday': '12\u202fPM–1\u202fAM', 'Thursday': '12\u202fPM–1\u202fAM', 'Friday': '12\u202fPM–1\u202fAM'}",2062+ Photos,02 24359140,,,"Shajarat Al-durr Restaurant مطعم شجرة الدر, Point 90 Mall, New Cairo 3, Cairo Governorate 11835",,EG,,restaurants
0x14583e0e3b267ee3:0xe830322369c72022,Indira Indian Restaurant,https://www.urldefense.com,30.0738002,31.3441754,,989,,"['Indian restaurant', 'Restaurant']","{'Saturday': '1\u202fPM–12\u202fAM', 'Sunday': '1\u202fPM–12\u202fAM', 'Monday': '1\u202fPM–12\u202fAM', 'Tuesday': '1\u202fPM–12\u202fAM', 'Wednesday': '1\u202fPM–12\u202fAM', 'Thursday': '1\u202fPM–12\u202fAM', 'Friday': '1\u202fPM–12\u202fAM'}",506+ Photos,010 22221260,"[['https://bit.ly/2Lc00eV', 'bit.ly', None, None, ',AOvVaw2W3QgZAdYAx6evEOuIW4sv,,0ahUKEwj5ktO6udOMAxVD8MkDHW5kFfMQ2ZABCK4CKBQ,']]",,"Indira Indian Restaurant, علي راشد، Masaken Al Mohandesin, Heliopolis, Cairo Governorate 4451620",,EG,,restaurants
0x145840cdc7e28511:0x9f649c9eb3c03a92,Osmanly Restaurant,https://www.kempinski.com,30.0386357,31.230671,,660,,"['Turkish restaurant', 'Restaurant']","{'Saturday': '1\u202fPM–12\u202fAM', 'Sunday': '1\u202fPM–12\u202fAM', 'Monday': '1\u202fPM–12\u202fAM', 'Tuesday': '1\u202fPM–12\u202fAM', 'Wednesday': '1\u202fPM–12\u202fAM', 'Thursday': '1\u202fPM–12\u202fAM', 'Friday': '1\u202fPM–12\u202fAM'}",479+ Photos,02 27980000,,,"Osmanly Restaurant, 12 Ahmed Ragheb, street, Cairo Governorate 11519",,EG,,restaurants
0x1459741aef6a6cc1:0xc1291d9e59d36148,مطعم و كافيتريا البارون,,29.4824951,30.8173386,$$,354,Moderately expensive,['Izakaya restaurant'],"{'Saturday': 'Open 24 hours', 'Sunday': 'Open 24 hours', 'Monday': 'Open 24 hours', 'Tuesday': 'Open 24 hours', 'Wednesday': 'Open 24 hours', 'Thursday': 'Open 24 hours', 'Friday': 'Open 24 hours'}",260+ Photos,010 00161837,,,"مطعم و كافيتريا البارون, Monshaat Sanoras, Sinnuris, Faiyum Governorate 2956386",,EG,,restaurants
0x1436896950eaf8cf:0x7df97bfcbe3b6a07,Riviera,https://www.fourseasons.com,30.0362362,31.2294568,,52,,"['Restaurant', 'Fine dining restaurant', 'Italian restaurant', 'Wine bar']","{'Saturday': '12:30–4\u202fPM', 'Sunday': '12:30–4\u202fPM', 'Monday': '12:30–4\u202fPM', 'Tuesday': '12:30–4\u202fPM', 'Wednesday': '12:30–4\u202fPM', 'Thursday': '12:30–4\u202fPM', 'Friday': '12:30–4\u202fPM'}",187+ Photos,02 27916875,"[['https://www.opentable.com/r/riviera-cairo', 'opentable.com', None, None, ',AOvVaw1kS9RFBDI9XcCvivKS1tIB,,0ahUKEwj5ktO6udOMAxVD8MkDHW5kFfMQ2ZABCKwDKBI,']]",,"Riviera, 1089 Nile Corniche, El Nil, Cairo Governorate 11519",,EG,,restaurants
0x14584583461348a3:0xc19a2ae1750cbfa2,Tasty House Egypt restaurant - مطعم تيستي هاوس,,29.9875216,31.1325601,,623,,['Buffet restaurant'],"{'Saturday': '8\u202fAM–1\u202fAM', 'Sunday': '8\u202fAM–1\u202fAM', 'Monday': '8\u202fAM–1\u202fAM', 'Tuesday': '8\u202fAM–1\u202fAM', 'Wednesday': '8\u202fAM–1\u202fAM', 'Thursday': '8\u202fAM–1\u202fAM', 'Friday': '8\u202fAM–1\u202fAM'}",369+ Photos,011 55459305,,,"Tasty House Egypt restaurant - مطعم تيستي هاوس, امام فندق مينا هاوس, 19 Cairo - Alexandria Desert Rd, Kafr Nassar, Al Haram, Giza Governorate 12511",,EG,,restaurants
0x14597929ca9c2ae3:0x20f741919a612f42,Red Sea restaurant,,29.6603498,30.9739243,$$,139,Moderately expensive,['Seafood restaurant'],"{'Saturday': '9\u202fAM–3\u202fAM', 'Sunday': '9\u202fAM–3\u202fAM', 'Monday': '9\u202fAM–3\u202fAM', 'Tuesday': '9\u202fAM–3\u202fAM', 'Wednesday': '9\u202fAM–3\u202fAM', 'Thursday': '9\u202fAM–3\u202fAM', 'Friday': '9\u202fAM–3\u202fAM'}",99+ Photos,010 50083051,,,"Red Sea restaurant, نادي قارو الرئيسي بجوار coffe time, Faiyum Desert Rd, Faiyum, Faiyum Governorate 63514",,EG,,restaurants
0x145975b941ebd73f:0x368b147611372000,Sohor Spot - سحور سبوت,https://www.facebook.com,29.4931558,30.87901,,4,,['Restaurant'],"{'Saturday': '4\u202fPM–4\u202fAM', 'Sunday': '4\u202fPM–4\u202fAM', 'Monday': '4\u202fPM–4\u202fAM', 'Tuesday': '4\u202fPM–4\u202fAM', 'Wednesday': '4\u202fPM–4\u202fAM', 'Thursday': '4\u202fPM–4\u202fAM', 'Friday': '4\u202fPM–4\u202fAM'}",,010 17327349,,,"Sohor Spot - سحور سبوت, الكيلو 48 طريق مصر الفيوم طريق مصر",,EG,,restaurants
0x145840cf12c1589b:0xa94ad7bf954816dd,Birdcage,https://www.ihg.com,30.0429229,31.2320766,,548,,['Thai restaurant'],"{'Saturday': '12\u202fPM–12\u202fAM', 'Sunday': '12\u202fPM–12\u202fAM', 'Monday': '12\u202fPM–12\u202fAM', 'Tuesday': '12\u202fPM–12\u202fAM', 'Wednesday': '12\u202fPM–12\u202fAM', 'Thursday': '12\u202fPM–12\u202fAM', 'Friday': '12\u202fPM–12\u202fAM'}",549+ Photos,02 27988000,"[['https://bit.ly/32s8E1K', 'bit.ly', None, None, ',AOvVaw3JdiiibMln2MnmuXdwyP8U,,0ahUKEwj5ktO6udOMAxVD8MkDHW5kFfMQ2ZABCNEEKBQ,']]",,"Birdcage, Semiramis InterContinental Hotel، Corniche El Nile، Qasr Ad Dobarah, Qasr El Nil, Cairo Governorate 11511",,EG,,restaurants
0x145855b620e55067:0x1d2cf461dcf5ff0d,Zombie Restaurant,,29.9477877,30.9143147,$$,13,Moderately expensive,['Restaurant'],"{'Saturday': '9\u202fAM–2\u202fAM', 'Sunday': '9\u202fAM–2\u202fAM', 'Monday': '9\u202fAM–2\u202fAM', 'Tuesday': '9\u202fAM–2\u202fAM', 'Wednesday': '9\u202fAM–2\u202fAM', 'Thursday': '9\u202fAM–2\u202fAM', 'Friday': '9\u202fAM–2\u202fAM'}",,010 17477555,,,"Zombie Restaurant, مول اجياد - بجوار مستشفى اكتوبر العام و رنين, Giza Governorate 12311",,EG,,restaurants
0x14584f9c8dc493e5:0x5b2d1ac0043325c8,Paradise Pyramids View Restaurant,,29.969456,31.1451284,,5,,['Restaurant'],"{'Saturday': 'Open 24 hours', 'Sunday': 'Open 24 hours', 'Monday': 'Open 24 hours', 'Tuesday': 'Open 24 hours', 'Wednesday': 'Open 24 hours', 'Thursday': 'Open 24 hours', 'Friday': 'Open 24 hours'}",12 Photos,010 40387910,"[['https://www.booking.com/hotel/eg/ra-pyramids-apartment.en-gb.html?aid=318615&label=New_English_EN_EG_26745747745-QBEn3Je11XsNa%2A2ZEtlQZAS637942139669%3Apl%3Ata%3Ap1%3Ap2%3Aac%3Aap%3Aneg%3Afi%3Atidsa-195218866105%3Alp1005394%3Ali%3Adec%3Adm%3Aag26745747745%3Acmp393949945&sid=f8605481d572a8fd86322c3832aa49af&all_sr_blocks=1233791613_395340360_2_41_0&checkin=2025-04-14&checkout=2025-04-15&dest_id=-290692&dest_type=city&dist=0&group_adults=2&group_children=0&hapos=3&highlighted_blocks=1233791613_395340360_2_41_0&hpos=3&matching_block_id=1233791613_395340360_2_41_0&no_rooms=1&req_adults=2&req_children=0&room1=A%2CA&sb_price_type=total&sr_order=popularity&sr_pri_blocks=1233791613_395340360_2_41_0__1000&srepoch=1741897010&srpvid=8e0a8e966aa00275&type=total&ucfs=1&', 'booking.com', None, None, ',AOvVaw11FCsTIxYLlQPFmAQkiA97,,0ahUKEwj5ktO6udOMAxVD8MkDHW5kFfMQ2ZABCKMFKBM,']]",,"X49W+R25 Paradise Pyramids View Restaurant, المستشار سمير النجار, Al Haram, Giza Governorate 3514310",,EG,,restaurants
0x1459a3e982947ead:0x427def0a92bab779,كافيتريا الفارس,,29.5183222,31.0742799,,110,,['Restaurant'],"{'Saturday': 'Open 24 hours', 'Sunday': 'Open 24 hours', 'Monday': 'Open 24 hours', 'Tuesday': 'Open 24 hours', 'Wednesday': 'Open 24 hours', 'Thursday': 'Open 24 hours', 'Friday': 'Open 24 hours'}",7 Photos,011 21288294,,,"كافيتريا الفارس, Tamiya, Faiyum Governorate 2977174",,EG,,restaurants
0x14584196e69d35fb:0xe8ec826c0b633515,Giannini's New York Italian Restaurant,https://www.marriott.com,30.0393584,31.2202868,,566,,"['Italian restaurant', 'Restaurant']","{'Saturday': '12\u202fPM–12\u202fAM', 'Sunday': '12\u202fPM–12\u202fAM', 'Monday': '12\u202fPM–12\u202fAM', 'Tuesday': '12\u202fPM–12\u202fAM', 'Wednesday': '12\u202fPM–12\u202fAM', 'Thursday': '12\u202fPM–1\u202fAM', 'Friday': '12\u202fPM–1\u202fAM'}",336+ Photos,010 22216883,"[['https://wa.me/+201022216883', 'wa.me', None, None, ',AOvVaw21U9ZLzzQ3zcEFu-6UKslS,,0ahUKEwj5ktO6udOMAxVD8MkDHW5kFfMQ2ZABCPUFKBI,']]",,"Giannini's New York Italian Restaurant, Located in sheraton Cairo Hotel, Galae Square, Cairo Governorate",,EG,,restaurants
0x1436650588f76b2d:0xb80c0578b7f04f97,King Jamaica restaurant & Cafe and breakfast ( Ayman jamaica ) ايمن جاميكا,https://www.restaurantguru.com,24.0893254,32.8910096,,1117,,"['Restaurant', 'Bed & breakfast', 'Breakfast restaurant', 'Cafe', 'Chinese restaurant', 'Guest house', 'Hookah bar', 'Jamaican restaurant', 'Vegan restaurant', 'Vegetarian restaurant']",,1592+ Photos,015 56699398,,,"King Jamaica restaurant & Cafe and breakfast ( Ayman jamaica ) ايمن جاميكا, Elephantine Island, Sheyakhah Oula, Aswan 1, Aswan Governorate 81111",,EG,,restaurants
0x14597930fd13ea8d:0x1119d58463749215,مطعم بيجي Biggy restaurant,,29.3232937,30.8539911,,18,,['Fast food restaurant'],,4 Photos,015 50032525,,,"8VF3+7HX مطعم بيجي Biggy restaurant, Qesm Al Fayoum, First Al Faiyum, Faiyum Governorate 2934181",,EG,,restaurants
0x145997e5dcaebfe7:0x426dcd6d7aaaa6ef,مطعم الشيخ محمد للمشويات,,29.4372995,31.130354,$$,56,Moderately expensive,['Barbecue restaurant'],,9 Photos,,,,"C4PJ+W49 مطعم الشيخ محمد للمشويات, Giza - Luxor Rd, Tamiya, Faiyum Governorate 2966011",,EG,,restaurants
0x14585baf9aed5329:0xc8733f9d6c660cb2,Sachi Park St,,30.0249595,31.0113658,,756,,['Restaurant'],"{'Saturday': '2\u202fPM–12\u202fAM', 'Sunday': '2\u202fPM–12\u202fAM', 'Monday': '2\u202fPM–12\u202fAM', 'Tuesday': '2\u202fPM–12\u202fAM', 'Wednesday': '2\u202fPM–12\u202fAM', 'Thursday': '2\u202fPM–1\u202fAM', 'Friday': '2\u202fPM–1\u202fAM'}",697+ Photos,012 78666185,,,"Sachi Park St, Park St, El-Bostan, First Al Sheikh Zayed, Giza Governorate 12651",,EG,,restaurants
0x145823527cb1fc73:0x94dee58cd722bdb1,Brunch & Cake Lake View,https://www.brunchandcake.com,30.0243389,31.4537953,$$$$,4007,Very expensive,['Restaurant'],"{'Saturday': '9\u202fAM–12\u202fAM', 'Sunday': '9\u202fAM–12\u202fAM', 'Monday': '9\u202fAM–12\u202fAM', 'Tuesday': '9\u202fAM–12\u202fAM', 'Wednesday': '9\u202fAM–12\u202fAM', 'Thursday': '9\u202fAM–12\u202fAM', 'Friday': '9\u202fAM–12\u202fAM'}",1565+ Photos,,"[['https://foh.solutions/reservation-form/brunch-and-cake', 'foh.solutions', None, None, ',AOvVaw3phYrMheuBBf3yJUV_HE4x,,0ahUKEwj5ktO6udOMAxVD8MkDHW5kFfMQ2ZABCK0HKBA,']]",,"Brunch & Cake Lake View, Lake View El, N Teseen St, New Cairo 1, Cairo Governorate 11835",,EG,,restaurants
0x145841d721b42e35:0x26d27e1b13c12d5e,Sapporo Japanese Restaurant,https://www.marriott.com,30.0392184,31.2199591,,652,,"['Japanese restaurant', 'Teppanyaki restaurant']","{'Saturday': '5\u202fPM–12\u202fAM', 'Sunday': '5\u202fPM–12\u202fAM', 'Monday': '5\u202fPM–12\u202fAM', 'Tuesday': '5\u202fPM–12\u202fAM', 'Wednesday': '5\u202fPM–12\u202fAM', 'Thursday': '5\u202fPM–1\u202fAM', 'Friday': '3\u202fPM–1\u202fAM'}",606+ Photos,010 22216883,"[['https://www.eat2eat.com/SWBooking/Pages/Reservation.aspx?relId=NAA4ADYAOQA=&lang=0&pro=0&src=GM', 'eat2eat.com', None, None, ',AOvVaw3CpX9uSPkjmkVmcccWDzca,,0ahUKEwj5ktO6udOMAxVD8MkDHW5kFfMQ2ZABCN0HKBQ,'], ['https://wa.me/+201022216883', 'wa.me', None, None, ',AOvVaw21U9ZLzzQ3zcEFu-6UKslS,,0ahUKEwj5ktO6udOMAxVD8MkDHW5kFfMQ2ZABCN4HKBU,']]",,"Sapporo Japanese Restaurant, Galae Square, Ad Doqi A, Dokki, Giza Governorate 3750412",,EG,,restaurants
0x14599f0028b15755:0xa79d71586ed4fcd0,Twister Restaurant,,29.4737854,30.9531786,,,,['Fast food restaurant'],,,,,,"FXF3+G77 Twister Restaurant, Madinet Tameyah, Tamiya, Faiyum Governorate 2970281",,EG,,restaurants
0x1459710e837ef2f9:0x7e5781b71db3199a,قرية اللؤلؤة السياحية,,29.4689244,30.7796211,,1,,['Restaurant'],"{'Saturday': '8\u202fAM–4\u202fAM', 'Sunday': '8\u202fAM–4\u202fAM', 'Monday': '8\u202fAM–4\u202fAM', 'Tuesday': '8\u202fAM–4\u202fAM', 'Wednesday': '8\u202fAM–4\u202fAM', 'Thursday': '8\u202fAM–4\u202fAM', 'Friday': '8\u202fAM–4\u202fAM'}",55+ Photos,010 94777495,,,"قرية اللؤلؤة السياحية, مدخل, As Saeedeyah, Sinnuris, Faiyum Governorate 2955740",,EG,,restaurants
0x14583e1f1b3964d9:0x1890c624dcbb4327,ESCĀ,https://www.escahospitality.com,30.0877619,31.3338351,$$$$,685,Very expensive,"['Restaurant', 'Bar']","{'Saturday': '4\u202fPM–1\u202fAM', 'Sunday': '4\u202fPM–1\u202fAM', 'Monday': '4\u202fPM–1\u202fAM', 'Tuesday': '4\u202fPM–1\u202fAM', 'Wednesday': '4\u202fPM–1\u202fAM', 'Thursday': '4\u202fPM–1\u202fAM', 'Friday': '4\u202fPM–1\u202fAM'}",403+ Photos,010 11155776,"[['https://www.escacairo.com/reservations', 'escacairo.com', None, None, ',AOvVaw1oQTtLd6sZiorDDD8DdDqp,,0ahUKEwj5ktO6udOMAxVD8MkDHW5kFfMQ2ZABCM8IKBQ,']]",,"ESCĀ, 4 Al Badeya, Almazah, Heliopolis, Cairo Governorate 4461025",,EG,,restaurants
0x145971726d9f83d9:0xfbfd40d02fa194ed,مطعم و كافيه الروضة,,29.4691995,30.7686423,,77,,['Izakaya restaurant'],"{'Saturday': '12\u202fPM–3\u202fAM', 'Sunday': '12\u202fPM–3\u202fAM', 'Monday': '12\u202fPM–3\u202fAM', 'Tuesday': '12\u202fPM–3\u202fAM', 'Wednesday': '12\u202fPM–3\u202fAM', 'Thursday': '12\u202fPM–3\u202fAM', 'Friday': '12\u202fPM–3\u202fAM'}",59+ Photos,,,,"FQ99+MFC مطعم و كافيه الروضة, As Saeedeyah, Sinnuris, Faiyum Governorate 2955740",,EG,,restaurants
0x145841ab6edafaef:0x9d37d671603f9ff8,KAMALA,https://www.sofitel.accor.com,30.0654215,31.2277672,,43,,['Asian restaurant'],"{'Saturday': '12–5\u202fPM', 'Sunday': '12–5\u202fPM', 'Monday': '12–5\u202fPM', 'Tuesday': '12–5\u202fPM', 'Wednesday': '12–5\u202fPM', 'Thursday': '12–5\u202fPM', 'Friday': '12–5\u202fPM'}",67+ Photos,02 25808000,,,"KAMALA, 1191 Nile Corniche, Souq Al ASR, Bulaq, Cairo Governorate 4311103",,EG,,restaurants
0x14584f97fe10e445:0xc7c2ae11fc163a10,Blue Restaurant & Lounge,https://www.facebook.com,29.952771,31.0867914,,118,,"['Buffet restaurant', 'Lounge', 'Restaurant']","{'Saturday': '10\u202fAM–3\u202fAM', 'Sunday': '10\u202fAM–3\u202fAM', 'Monday': '10\u202fAM–3\u202fAM', 'Tuesday': '10\u202fAM–3\u202fAM', 'Wednesday': '10\u202fAM–3\u202fAM', 'Thursday': '10\u202fAM–3\u202fAM', 'Friday': '10\u202fAM–3\u202fAM'}",69+ Photos,010 33338282,,,"X33P+4P3 Blue Restaurant & Lounge, بعد مدخل البوابة الرابعة, داخل محطة وقود شيل اوت, El Wahat Rd, 6th of October City (2), Giza Governorate",,EG,,restaurants
0x14583d36077b6585:0x784e387dea344e93,Yana,https://www.kempinski.com,30.0604335,31.4191965,,43,,"['Asian fusion restaurant', 'Asian restaurant']","{'Saturday': '1\u202fPM–12\u202fAM', 'Sunday': '1\u202fPM–12\u202fAM', 'Monday': '1\u202fPM–12\u202fAM', 'Tuesday': 'Closed', 'Wednesday': '1\u202fPM–12\u202fAM', 'Thursday': '1\u202fPM–12\u202fAM', 'Friday': '1\u202fPM–12\u202fAM'}",113+ Photos,010 97111151,,,"Yana, Ring Rd, Second New Cairo, Cairo Governorate 11477",,EG,,restaurants
0x14583d641ea59ccb:0xf0bb0eac65381139,Reif Kushiyaki 5A,https://www.reifkushiyakiegypt.com,30.0092597,31.4024008,,271,,['Japanese restaurant'],"{'Saturday': '12\u202fPM–1\u202fAM', 'Sunday': '12\u202fPM–12\u202fAM', 'Monday': '12\u202fPM–12\u202fAM', 'Tuesday': '12\u202fPM–12\u202fAM', 'Wednesday': '12\u202fPM–12\u202fAM', 'Thursday': '12\u202fPM–1\u202fAM', 'Friday': '12\u202fPM–1\u202fAM'}",531+ Photos,012 80446862,,,"Reif Kushiyaki 5A, 5A By The Waterway Developments, New Cairo 3, Cairo Governorate 4720113",,EG,,restaurants
0x14583d6203259987:0x17c3f6a70d2e4c2e,Nişantaşi Cairo Festival City Mall,https://www.nisantasi-int.com,30.0283965,31.4090701,$$$,8652,Expensive,['Turkish restaurant'],"{'Saturday': '10\u202fAM–1\u202fAM', 'Sunday': '10\u202fAM–12\u202fAM', 'Monday': '10\u202fAM–12\u202fAM', 'Tuesday': '10\u202fAM–12\u202fAM', 'Wednesday': '10\u202fAM–12\u202fAM', 'Thursday': '10\u202fAM–1\u202fAM', 'Friday': '10\u202fAM–1\u202fAM'}",2585+ Photos,012 22533336,"[['https://www.nisantasi.com.eg/our-vision', 'nisantasi.com.eg', None, None, ',AOvVaw39H710u4-fep_xveQvYywM,,0ahUKEwj5ktO6udOMAxVD8MkDHW5kFfMQ2ZABCM4KKBI,']]",,"Nişantaşi Cairo Festival City Mall, Mall The Village, New Cairo 1, Cairo Governorate 4730020",,EG,,restaurants
0x145815a8fe456ae1:0x2d615669cd01cc58,Fayruz Lebanese Restaurant,https://www.widget.servmeco.com,30.072351,31.3480106,,1260,,['Restaurant'],"{'Saturday': '1\u202fPM–1\u202fAM', 'Sunday': '1\u202fPM–1\u202fAM', 'Monday': '1\u202fPM–1\u202fAM', 'Tuesday': '1\u202fPM–1\u202fAM', 'Wednesday': '1\u202fPM–1\u202fAM', 'Thursday': '1\u202fPM–1\u202fAM', 'Friday': '1\u202fPM–1\u202fAM'}",455+ Photos,02 24800009,"[['https://widget.servmeco.com/?oid=1366', 'servmeco.com', None, None, ',AOvVaw0ZsKrEB1K0vxJmZz16c0vs,,0ahUKEwj5ktO6udOMAxVD8MkDHW5kFfMQ2ZABCPwKKBQ,']]",,"Fayruz Lebanese Restaurant, Omar Ibn El-Khattab, Masaken Al Mohandesin, Nasr City, Cairo Governorate 11737",,EG,,restaurants
0x14584f911b1f260b:0x4ee1f49d324c6b26,931 restaurant,,29.9813431,31.1066934,,13,,['Restaurant'],"{'Saturday': '12\u202fPM–2\u202fAM', 'Sunday': '12\u202fPM–2\u202fAM', 'Monday': '12\u202fPM–2\u202fAM', 'Tuesday': '12\u202fPM–2\u202fAM', 'Wednesday': '12\u202fPM–2\u202fAM', 'Thursday': '12\u202fPM–2\u202fAM', 'Friday': '12\u202fPM–2\u202fAM'}",4 Photos,010 93179227,,,"X4J4+GMP 931 restaurant, Al Haram, Giza Governorate 3510602",,EG,,restaurants
0x14584f55755680b1:0x30034f3c50207e51,Oriental Restaurant & Cafe,,29.9735971,31.1419651,,58,,['Restaurant'],,3 Photos,,,,"Oriental Restaurant & Cafe, 13 Gamal Abd El-Nasir, Nazlet El-Semman, Al Haram, Giza Governorate 3514501",,EG,,restaurants
0x1459792157ca022d:0xd00058f43b491ae5,Zero's Restaurant,,29.3188057,30.8555857,,22,,['Fast food restaurant'],"{'Saturday': '11\u202fAM–2\u202fAM', 'Sunday': '11\u202fAM–2\u202fAM', 'Monday': '11\u202fAM–2\u202fAM', 'Tuesday': '11\u202fAM–2\u202fAM', 'Wednesday': '11\u202fAM–2\u202fAM', 'Thursday': '11\u202fAM–3\u202fAM', 'Friday': '11\u202fAM–3\u202fAM'}",23 Photos,010 29070000,,,"Zero's Restaurant, Qesm Al Fayoum, Faiyum, Faiyum Governorate 2934370, Faiyum Governorate 63511",,EG,,restaurants
0x14599fc6237f074d:0xc54a4e5c578263dd,محلات اولاد الشيخ احمد للادوات الصحيه,,29.4816718,31.0427916,,4,,['Egyptian restaurant'],"{'Saturday': 'Open 24 hours', 'Sunday': 'Open 24 hours', 'Monday': 'Open 24 hours', 'Tuesday': 'Open 24 hours', 'Wednesday': 'Open 24 hours', 'Thursday': 'Open 24 hours', 'Friday': 'Open 24 hours'}",,011 21515161,,,"F2JV+M47 محلات اولاد الشيخ احمد للادوات الصحيه, طريق سويرس, Monshaat Doctor El-Gammal, Tamiya, Faiyum Governorate 2974207",,EG,,restaurants
0x14584f00398a122f:0x8406e76e1c8579ec,La una café & restaurant,,29.9536067,31.085425,,29,,['Restaurant'],"{'Saturday': '9\u202fAM–3\u202fAM', 'Sunday': '9\u202fAM–3\u202fAM', 'Monday': '9\u202fAM–3\u202fAM', 'Tuesday': '9\u202fAM–3\u202fAM', 'Wednesday': '9\u202fAM–3\u202fAM', 'Thursday': '9\u202fAM–3\u202fAM', 'Friday': '9\u202fAM–3\u202fAM'}",43+ Photos,,,,"X33P+C5V La una café & restaurant, Chillout, El Wahat Rd, Al Haram, Giza Governorate 3510001",,EG,,restaurants
0x14583e26a870f6b7:0xf0688ccb9bacc1ad,SACHI Heliopolis,https://www.sachirestaurant.com,30.0878716,31.3247099,$$$,1666,Expensive,"['Fine dining restaurant', 'Bar']","{'Saturday': '2\u202fPM–12\u202fAM', 'Sunday': '2\u202fPM–12\u202fAM', 'Monday': '2\u202fPM–12\u202fAM', 'Tuesday': '2\u202fPM–12\u202fAM', 'Wednesday': '2\u202fPM–12\u202fAM', 'Thursday': '2\u202fPM–1\u202fAM', 'Friday': '2\u202fPM–1\u202fAM'}",826+ Photos,012 80902028,"[['https://www.sachirestaurant.com/reservations', 'sachirestaurant.com', None, None, ',AOvVaw1Ya_G34zUGypI-ch3L95AT,,0ahUKEwj5ktO6udOMAxVD8MkDHW5kFfMQ2ZABCOkMKBQ,']]",,"SACHI Heliopolis, 3, Cleopatra St،, Korba،El-Montaza،, Heliopolis, Cairo Governorate",,EG,,restaurants
0x14599f002fe5e2f5:0xe6ca3c21acfa2a87,ماركت وكافية ومطعم ابو احمد ربيع مهدي,,29.531563,30.914648,,,,['Restaurant'],"{'Saturday': 'Open 24 hours', 'Sunday': 'Open 24 hours', 'Monday': 'Open 24 hours', 'Tuesday': 'Open 24 hours', 'Wednesday': 'Open 24 hours', 'Thursday': 'Open 24 hours', 'Friday': 'Open 24 hours'}",9 Photos,011 52458828,,,"GWJ7+VPG ماركت وكافية ومطعم ابو احمد ربيع مهدي, Faiyum Desert Rd, Al Gemhoureya, Tamiya, Faiyum Governorate 2975315",,EG,,restaurants
0x145817e3b5c032bb:0x1262bc331bb13a4c,JW Steakhouse Cairo Mirage City,https://www.marriott.com,30.071991,31.434417,,179,,['Steak house'],"{'Saturday': '5:30\u202fPM–12\u202fAM', 'Sunday': '5:30\u202fPM–12\u202fAM', 'Monday': '5:30\u202fPM–12\u202fAM', 'Tuesday': '5:30\u202fPM–12\u202fAM', 'Wednesday': '5:30\u202fPM–12\u202fAM', 'Thursday': '5:30\u202fPM–12\u202fAM', 'Friday': '5:30\u202fPM–12\u202fAM'}",139+ Photos,02 24065899,"[['https://bit.ly/3kjqmwr', 'bit.ly', None, None, ',AOvVaw0uaFhNyongEFXxLZxb1_L2,,0ahUKEwj5ktO6udOMAxVD8MkDHW5kFfMQ2ZABCLsNKBA,']]",,"JW Steakhouse Cairo Mirage City, Ring Road- Mirage City- Box 427 Heliopolis, Cairo Governorate 11757",,EG,,restaurants
0x1436653da7d9af47:0x3052ff4b2ea39929,1902 Restaurant,https://www.all.accor.com,24.0823375,32.8876094,,18,,['French restaurant'],,48+ Photos,,,,"3VJQ+W2Q 1902 Restaurant, Abtal El Tahrir Street, Sheyakhah Oula, Aswan 1, Aswan Governorate 1240836",,EG,,restaurants
0x14599ee478c80549:0x948260f6a082bb1b,حلواني الشعراوي للحلويات الشرقية والغربية,,29.4748165,30.9564151,,6,,['Sweets and dessert buffet'],"{'Saturday': '8\u202fAM–2\u202fAM', 'Sunday': '8\u202fAM–2\u202fAM', 'Monday': '8\u202fAM–2\u202fAM', 'Tuesday': '8\u202fAM–2\u202fAM', 'Wednesday': '8\u202fAM–2\u202fAM', 'Thursday': '8\u202fAM–2\u202fAM', 'Friday': '8\u202fAM–2\u202fAM'}",Photos,011 42858584,,,"FXF4+WHF حلواني الشعراوي للحلويات الشرقية والغربية, Madinet Tameyah, Tamiya, Faiyum Governorate 2963745",,EG,,restaurants
0x143664b1b70d1bc1:0xc4cacadeb64acfe1,Bob Marley Moonlight terrace restaurant cafe,https://www.facebook.com,24.0904587,32.8910269,$$,1542,Moderately expensive,"['Barbecue restaurant', 'Home staging service', 'Takeout restaurant']","{'Saturday': 'Open 24 hours', 'Sunday': '8\u202fAM–12\u202fAM', 'Monday': '8\u202fAM–12\u202fAM', 'Tuesday': '8\u202fAM–12\u202fAM', 'Wednesday': '8\u202fAM–2\u202fAM', 'Thursday': '8\u202fAM–12\u202fAM', 'Friday': '8\u202fAM–12\u202fAM'}",2226+ Photos,011 42133369,,,"Bob Marley Moonlight terrace restaurant cafe, Sheyakhah Oula, Aswan 1, Aswan Governorate 1240890",,EG,,restaurants
0x145969bfe0cb1797:0xe57bbe584fa646d,Bahia Restaurant,,29.453611,30.580833,,,,['Restaurant'],,,,,,"FH3J+C8W Bahia Restaurant, Mesala ST, Al Faiyum Governorate Desert, Faiyum Governorate 2814001",,EG,,restaurants
0x145853aca837c0e3:0xfd25596a810358bb,Wannas Cafe & Restaurant,,29.8945634,31.0606602,,19,,['Restaurant'],"{'Saturday': '10\u202fAM–2\u202fAM', 'Sunday': '10\u202fAM–2\u202fAM', 'Monday': '10\u202fAM–2\u202fAM', 'Tuesday': '10\u202fAM–2\u202fAM', 'Wednesday': '10\u202fAM–2\u202fAM', 'Thursday': '10\u202fAM–2\u202fAM', 'Friday': '10\u202fAM–2\u202fAM'}",21 Photos,010 19260006,,,"V3W6+29 Wannas Cafe & Restaurant, First 6th of October, October Gardens, Giza Governorate 3276006",,EG,,restaurants
0x145841b33a128cb9:0x13bd38684a7d7aea,Citadel grill,,30.0444196,31.2357116,,17,,['Restaurant'],"{'Saturday': '12\u202fAM–12\u202fPM', 'Sunday': '12\u202fAM–12\u202fPM', 'Monday': '12\u202fAM–12\u202fPM', 'Tuesday': '12\u202fAM–12\u202fPM', 'Wednesday': '12\u202fAM–12\u202fPM', 'Thursday': '12\u202fAM–12\u202fPM', 'Friday': '12\u202fAM–12\u202fPM'}",24 Photos,010 12440224,,,Citadel grill، ‪1115 Corniche Ramses، Hilton El Nile‬، 12344,,EG,,restaurants
0x14597f4097a91aa5:0xfa2e350afc6c7368,مطعم الطيب,https://www.facebook.com,29.2915829,30.8574893,$$,1223,Moderately expensive,['Barbecue restaurant'],"{'Saturday': 'Open 24 hours', 'Sunday': 'Open 24 hours', 'Monday': 'Open 24 hours', 'Tuesday': 'Open 24 hours', 'Wednesday': 'Open 24 hours', 'Thursday': 'Open 24 hours', 'Friday': 'Open 24 hours'}",248+ Photos,,,,"مطعم الطيب, The Ring Rd, Monshaat Al Fayoum, Faiyum, Faiyum Governorate 2942801",,EG,,restaurants
0x14597d0078c24f29:0x9d9643fd37389271,Al Ola Restaurant(مطعم العلا),,29.2397391,30.7928823,,2,,['Barbecue restaurant'],,Photos,010 08442604,,,"6QQV+V4X Al Ola Restaurant(مطعم العلا), الفيوم الغرق، Madinet ATSA, Atsa, Faiyum Governorate 2844334",,EG,,restaurants
0x145841b67cb14a73:0xa48d55a71890962b,Le Tarbouche,https://www.lepacha.com,30.0519806,31.2277583,,35,,['Restaurant'],,44 Photos,,,,"362H+Q4R Le Tarbouche, Le Pacha 1901, Zamalek, Cairo Governorate 4270162",,EG,,restaurants
0x145815f696d11991:0x539205da3ec75b7c,Al Dabke,https://www.hilton.com,30.1065062,31.3650391,,85,,['Lebanese restaurant'],"{'Saturday': '12\u202fPM–1\u202fAM', 'Sunday': '12\u202fPM–1\u202fAM', 'Monday': '12\u202fPM–12\u202fAM', 'Tuesday': '11\u202fAM–1\u202fAM', 'Wednesday': '11\u202fAM–1\u202fAM', 'Thursday': '11\u202fAM–1\u202fAM', 'Friday': '12\u202fPM–1\u202fAM'}",183+ Photos,,,,"Al Dabke, 136 El-Orouba, El-Nozha, El Nozha, Cairo Governorate 4471101",,EG,,restaurants
0x14583d446300fb6d:0xda60f3fcb899aa58,ESCĀ TERRENAL,https://www.escahospitality.com,30.0089955,31.4018498,$$$$,396,Very expensive,['Restaurant'],"{'Saturday': '1\u202fPM–1\u202fAM', 'Sunday': '4\u202fPM–1\u202fAM', 'Monday': '4\u202fPM–1\u202fAM', 'Tuesday': '4\u202fPM–1\u202fAM', 'Wednesday': '4\u202fPM–1\u202fAM', 'Thursday': '4\u202fPM–1\u202fAM', 'Friday': '1\u202fPM–1\u202fAM'}",161+ Photos,010 06056055,,,"ESCĀ TERRENAL, 5A waterway, New Cairo 1, Cairo Governorate 4720113",,EG,,restaurants
0x1459a1531afa8ee5:0xd4c3b6e3e09d6b6f,رست الفيوم,,29.5501064,30.928128,$$,593,Moderately expensive,['Restaurant'],"{'Saturday': 'Open 24 hours', 'Sunday': 'Open 24 hours', 'Monday': 'Open 24 hours', 'Tuesday': 'Open 24 hours', 'Wednesday': 'Open 24 hours', 'Thursday': 'Open 24 hours', 'Friday': 'Open 24 hours'}",32 Photos,011 49210004,,,"رست الفيوم، طريق مصر, Faiyum Desert Rd, Faiyum, Faiyum Governorate",,EG,,restaurants
0x14599f26320474a3:0x9926666f73b14dc5,الفيوم مصر,,29.5205474,30.9276412,,16,,['Restaurant'],,2 Photos,,,,"GWCH+636 الفيوم مصر، Unnamed Road, Qasr Rashwan, Tamiya, Faiyum Governorate 2972034",,EG,,restaurants
0x143664cb2c9bbe0f:0x20a4a3b1a9724c94,El Dokka Resturant,https://www.facebook.com,24.0827169,32.8846513,$$,944,Moderately expensive,['Barbecue restaurant'],"{'Saturday': '12\u202fPM–12\u202fAM', 'Sunday': '12\u202fPM–12\u202fAM', 'Monday': '12\u202fPM–12\u202fAM', 'Tuesday': '12\u202fPM–12\u202fAM', 'Wednesday': '12\u202fPM–12\u202fAM', 'Thursday': '12\u202fPM–12\u202fAM', 'Friday': '12\u202fPM–12\u202fAM'}",1710+ Photos,011 11505032,,,"El Dokka Resturant, Eissa Island, كورنيش النيل, وسط البلد, Aswan 1, Aswan Governorate 1240861",,EG,,restaurants
0x145979d439b537e1:0xbcaa5bf5a9eed248,Chef restaurant مطعم الشيف,https://www.facebook.com,29.3063415,30.8541478,,5,,['Chicken restaurant'],,12 Photos,010 19968228,,,"8V43+GMJ Chef restaurant مطعم الشيف, الفيوم, المسلة،, Qesm Al Fayoum, First Al Faiyum, Faiyum Governorate",,EG,,restaurants
0x1458233a21f9944d:0xa7a9e9d458fe7405,Longhorn Texas BBQ,https://www.instagram.com,30.0489035,31.4757647,$$$$,1060,Very expensive,['Restaurant'],"{'Saturday': '1\u202fPM–12\u202fAM', 'Sunday': '1\u202fPM–12\u202fAM', 'Monday': '1\u202fPM–12\u202fAM', 'Tuesday': '1\u202fPM–12\u202fAM', 'Wednesday': '1\u202fPM–12\u202fAM', 'Thursday': '1\u202fPM–1\u202fAM', 'Friday': '1\u202fPM–1\u202fAM'}",824+ Photos,010 50088358,,,"Longhorn Texas BBQ, O1 mall, Mohammed Nagib Axis, New Cairo 1, Cairo Governorate 11835",,EG,,restaurants
0x14585334e4f36461:0x279a7108166f879a,Star Grill Restaurant,,29.9074791,31.0544357,,7,,['Fast food restaurant'],"{'Saturday': '12\u202fPM–2\u202fAM', 'Sunday': '12\u202fPM–2\u202fAM', 'Monday': '12\u202fPM–2\u202fAM', 'Tuesday': '12\u202fPM–2\u202fAM', 'Wednesday': '12\u202fPM–2\u202fAM', 'Thursday': '12\u202fPM–2\u202fAM', 'Friday': '12\u202fPM–2\u202fAM'}",10 Photos,010 25854146,,,"Star Grill Restaurant, الخلفي امام بوابه الرباب, مول, حدائق اكتوبر",,EG,,restaurants
0x14583f84f1544db3:0xc73adf3a1e746bac,Esplanade Cafe Restaurant,https://www.opentable.co.uk,30.0738409,31.3477431,$$,305,Moderately expensive,['Restaurant'],"{'Saturday': '6–10:30\u202fAM', 'Sunday': '6–10:30\u202fAM', 'Monday': '6–10:30\u202fAM', 'Tuesday': '6–10:30\u202fAM', 'Wednesday': '6–10:30\u202fAM', 'Thursday': '6–10:30\u202fAM', 'Friday': '6–10:30\u202fAM'}",62+ Photos,02 24800009,"[['https://www.opentable.com/r/esplanade-cafe-restaurant-cairo?corrid=91ff82a2-bb64-4caf-8d73-c75f0d4397ab&avt=eyJ2IjoyLCJtIjowLCJwIjowLCJzIjowLCJuIjowfQ&p=2&sd=2023-07-18T19%3A00%3A00', 'opentable.com', None, None, ',AOvVaw1_0FN_xCaUxzhHnlFhnhly,,0ahUKEwj5ktO6udOMAxVD8MkDHW5kFfMQ2ZABCPISKBQ,']]",,"Esplanade Cafe Restaurant، InterContinental Cairo Citystars, Omar Ibn El-Khattab، Street, Heliopolis, Cairo Governorate 11737",,EG,,restaurants
0x145841c80d5e18c5:0xb4aa2c37fb8f8530,L'Uliveto Italian Restaurant,https://www.fairmont.com,30.0717181,31.2275085,,138,,['Restaurant'],"{'Saturday': '6\u202fAM–11\u202fPM', 'Sunday': '6\u202fAM–11\u202fPM', 'Monday': '6\u202fAM–11\u202fPM', 'Tuesday': '6\u202fAM–11\u202fPM', 'Wednesday': '6\u202fAM–11\u202fPM', 'Thursday': '6\u202fAM–11\u202fPM', 'Friday': '6\u202fAM–11\u202fPM'}",166+ Photos,02 24619494,,,"L'Uliveto Italian Restaurant, Nile City Towers 2005 B, Nile Corniche, Ramlet Beaulac, Bulaq, Cairo Governorate 11311",,EG,,restaurants
0x145817f0cc1ca165:0x258122a0a3ecbd1d,Chinoix Restaurant,https://www.morecravings.com,30.0745722,31.4395341,,109,,['Chinese restaurant'],"{'Saturday': '3–11\u202fPM', 'Sunday': '3–11\u202fPM', 'Monday': '3–11\u202fPM', 'Tuesday': '3–11\u202fPM', 'Wednesday': '3–11\u202fPM', 'Thursday': '3–11\u202fPM', 'Friday': '3–11\u202fPM'}",151+ Photos,02 24063333,,,"3CFQ+RRF Chinoix Restaurant, Abbas Al Akkad Axis, Second New Cairo, Cairo Governorate 4732503",,EG,,restaurants
0x14583dd7955ef765:0xce87b4fe6531370d,El-khan Restaurant,https://www.triumphhotel.com,30.0033785,31.4010273,,34,,['Restaurant'],"{'Saturday': '12–10:30\u202fPM', 'Sunday': '12–10:30\u202fPM', 'Monday': '12–10:30\u202fPM', 'Tuesday': '12–10:30\u202fPM', 'Wednesday': '12–10:30\u202fPM', 'Thursday': '12–10:30\u202fPM', 'Friday': '12–10:30\u202fPM'}",57+ Photos,010 33055585,"[['https://triumphhotel.com/el-khan-restaurant/', 'triumphhotel.com', None, None, ',AOvVaw1AkFJ46KC6n5vJj8nuxnmt,,0ahUKEwj5ktO6udOMAxVD8MkDHW5kFfMQ2ZABCPcTKBQ,']]",,"El-khan Restaurant, In front of, Katameya Heights Road, New Cairo 1, Cairo Governorate 11861",,EG,,restaurants
0x145840cf125605af:0x57d23b95e9ef0fbb,Pane Vino Restaurant مطعم بان ڤينو,https://www.ihg.com,30.0432684,31.2320642,,900,,['Italian restaurant'],"{'Saturday': '12:30\u202fPM–1\u202fAM', 'Sunday': '12:30\u202fPM–1\u202fAM', 'Monday': '12:30\u202fPM–1\u202fAM', 'Tuesday': '12:30\u202fPM–1\u202fAM', 'Wednesday': '12:30\u202fPM–1\u202fAM', 'Thursday': '12:30\u202fPM–1\u202fAM', 'Friday': '12:30\u202fPM–1\u202fAM'}",515+ Photos,02 27988000,"[['https://bit.ly/39giCoy', 'bit.ly', None, None, ',AOvVaw1i6PWSmTGpHzaayWxs2mFA,,0ahUKEwj5ktO6udOMAxVD8MkDHW5kFfMQ2ZABCKUUKBQ,']]",,"Pane Vino Restaurant مطعم بان ڤينو, InterContinental Semiramis, Nile Corniche, Qasr Ad Dobarah, El Nile, Cairo Governorate 11511",,EG,,restaurants
0x145978df03b16edd:0x4a30a23825e56a18,Wings Restaurant - مطعم وينجز,,29.3150459,30.8521762,$$,846,Moderately expensive,"['Chicken restaurant', 'Fast food restaurant']","{'Saturday': '9\u202fAM–12\u202fAM', 'Sunday': '9\u202fAM–12\u202fAM', 'Monday': '9\u202fAM–12\u202fAM', 'Tuesday': '9\u202fAM–3\u202fAM', 'Wednesday': '9\u202fAM–12\u202fAM', 'Thursday': '9\u202fAM–12\u202fAM', 'Friday': '9\u202fAM–12\u202fAM'}",144+ Photos,010 13385712,,,"8V82+2V7 Wings Restaurant - مطعم وينجز, المسلة، First Al Faiyum, Faiyum Governorate 63511",,EG,,restaurants
0x145840c0d951113d:0x3cd085938aad3157,Koshary Abou Tarek,https://www.mohamedomarvr.com,30.0501531,31.237834,$$,38313,Moderately expensive,"['Koshari restaurant', 'Fast food restaurant', 'Restaurant']","{'Saturday': '7\u202fAM–12\u202fAM', 'Sunday': '7\u202fAM–12\u202fAM', 'Monday': '7\u202fAM–12\u202fAM', 'Tuesday': '7\u202fAM–12\u202fAM', 'Wednesday': '7\u202fAM–12\u202fAM', 'Thursday': '7\u202fAM–12\u202fAM', 'Friday': '7\u202fAM–12\u202fAM'}",12708+ Photos,02 25775935,,,"Koshary Abou Tarek, ١٦ Marouf, Qasr El Nil, Cairo Governorate 4272135",,EG,,restaurants
0x1458412c6439bcbb:0xbf71bfcb52865abb,Zeeyara Restaurant,https://www.facebook.com,30.0522256,31.2617879,,372,,['Restaurant'],"{'Saturday': '7\u202fAM–1\u202fAM', 'Sunday': '7\u202fAM–1\u202fAM', 'Monday': '7\u202fAM–1\u202fAM', 'Tuesday': '7\u202fAM–1\u202fAM', 'Wednesday': '7\u202fAM–1\u202fAM', 'Thursday': '7\u202fAM–1\u202fAM', 'Friday': '7\u202fAM–1\u202fAM'}",628+ Photos,010 22338401,,,"Zeeyara Restaurant, In front of Bayt، 114 Al Moez Ldin Allah Al Fatmi, Al Suhaymi، El Gamaliya, Cairo Governorate 11621",,EG,,restaurants
0x14367b4cb8b24a29:0xb5cb199d7403a2b6,Salah El Din Restaurant,,24.0908309,32.8951797,,166,,['Egyptian restaurant'],"{'Saturday': 'Open 24 hours', 'Sunday': 'Open 24 hours', 'Monday': 'Open 24 hours', 'Tuesday': 'Open 24 hours', 'Wednesday': 'Open 24 hours', 'Thursday': 'Open 24 hours', 'Friday': 'Open 24 hours'}",171+ Photos,011 40860000,,,"Salah El Din Restaurant, 89 Kornish Al Nile, Sheyakhah Oula, Aswan, Aswan Governorate 1240892",,EG,,restaurants
0x145840fabd33b959:0x3fff03dc350901a3,SAIGON RESTAURANT & LOUNGE,https://www.fairmont.com,30.072149,31.2279093,,495,,['Restaurant'],"{'Saturday': '6\u202fPM–1\u202fAM', 'Sunday': '6\u202fPM–1\u202fAM', 'Monday': '6\u202fPM–1\u202fAM', 'Tuesday': '6\u202fPM–1\u202fAM', 'Wednesday': '6\u202fPM–1\u202fAM', 'Thursday': '6\u202fPM–1\u202fAM', 'Friday': '6\u202fPM–1\u202fAM'}",472+ Photos,02 24619494,,,"SAIGON RESTAURANT & LOUNGE, Nile City Towers 2005 B, Nile Corniche, Ramlet Beaulac, Bulaq, Cairo Governorate 11311",,EG,,restaurants
0x14599f004cb24a6b:0x55094ef63435fb82,مطعم الزعبم,,29.476466,30.9595715,,,,['Italian restaurant'],,,,,,"FXG5+HRP مطعم الزعبم، أمام البنك الاهلى, El-Nahda, Madinet Tameyah, Tamiya, Faiyum Governorate 2963770",,EG,,restaurants
0x14599fd6d275b80b:0x3df0bb55ab54bf8b,Fayeuom home,,29.4975003,30.9066043,,17,,['Restaurant'],,,010 03156585,,,"FWX4+2J5 Fayeuom home, Qasr Rashwan, Tamiya, Faiyum Governorate 2971158",,EG,,restaurants
0x145847e9f06d4385:0x7a934170d6e53eab,Nairu,https://www.fourseasons.com,30.0244633,31.2181792,,121,,"['Asian restaurant', 'Chinese restaurant', 'Dim sum restaurant', 'Fine dining restaurant', 'Gluten-free restaurant', 'Indian restaurant', 'Japanese restaurant', 'Restaurant', 'Thai restaurant', 'Vegan restaurant']","{'Saturday': '1\u202fPM–12\u202fAM', 'Sunday': '1\u202fPM–12\u202fAM', 'Monday': '1\u202fPM–12\u202fAM', 'Tuesday': '1\u202fPM–12\u202fAM', 'Wednesday': '1\u202fPM–12\u202fAM', 'Thursday': '1\u202fPM–12\u202fAM', 'Friday': '1\u202fPM–12\u202fAM'}",316+ Photos,02 35671890,"[['https://www.opentable.com/r/nairu-lounge-at-four-seasons-hotel-cairo-at-the-first-residence-cairo', 'opentable.com', None, None, ',AOvVaw0C_S7d5VX64Fo-q8has2bp,,0ahUKEwj5ktO6udOMAxVD8MkDHW5kFfMQ2ZABCOYWKBQ,']]",,"Nairu, 136 Nile St, Al Omraneyah Al Gharbeyah, Al Giza, Giza Governorate 12612",,EG,,restaurants
0x145846882730d0c9:0x1647403fca4c2bd4,Elsawy restaurant,https://www.m.facebook.com,29.963996,31.107603,$$,653,Moderately expensive,['Egyptian restaurant'],"{'Saturday': '7\u202fAM–2\u202fAM', 'Sunday': '7\u202fAM–2\u202fAM', 'Monday': '7\u202fAM–2\u202fAM', 'Tuesday': '7\u202fAM–2\u202fAM', 'Wednesday': '7\u202fAM–2\u202fAM', 'Thursday': '7\u202fAM–2\u202fAM', 'Friday': '7\u202fAM–2\u202fAM'}",220+ Photos,02 33866644,,,"X475+H2X Elsawy restaurant, First 6th of October, Giza Governorate",,EG,,restaurants
0x145840d648a19ef7:0xe5ae35bca6338da1,Sabaya by the Nile,https://www.ihg.com,30.0430147,31.2318212,,480,,['Mediterranean restaurant'],"{'Saturday': '12\u202fPM–12\u202fAM', 'Sunday': '12\u202fPM–12\u202fAM', 'Monday': '12\u202fPM–12\u202fAM', 'Tuesday': '12\u202fPM–12\u202fAM', 'Wednesday': '12\u202fPM–12\u202fAM', 'Thursday': '12\u202fPM–12\u202fAM', 'Friday': '12\u202fPM–12\u202fAM'}",276+ Photos,02 27988000,"[['https://bit.ly/2BnOsU8', 'bit.ly', None, None, ',AOvVaw1w2Tes791UhcD2wgEFxMW9,,0ahUKEwj5ktO6udOMAxVD8MkDHW5kFfMQ2ZABCLwXKA8,']]",,"Sabaya by the Nile، Semiramis InterContinental, Corniche El Nil القاهرة‬ القاهرة Cairo القاهرة، 11511",,EG,,restaurants
0x14584f624a02ec19:0x2330a847f477e525,مطعم وكافيه الهضبة,https://www.facebook.com,29.9726975,31.1409467,$$,1303,Moderately expensive,"['Izakaya restaurant', 'Breakfast restaurant']","{'Saturday': 'Open 24 hours', 'Sunday': 'Open 24 hours', 'Monday': 'Open 24 hours', 'Tuesday': 'Open 24 hours', 'Wednesday': 'Open 24 hours', 'Thursday': 'Open 24 hours', 'Friday': 'Open 24 hours'}",1375+ Photos,011 50040181,,,"مطعم وكافيه الهضبة, 2ش أبوعزيزة من شارع أبوالهول السياحي الصوت والضوء 2nd Abu Aziza st., Ext Abul Houl, Pyramids",,EG,,restaurants
0x145847f68bbb908d:0x302952c5be2d0bdc,Lan Yuan Restaurant,https://www.elmenus.com,29.9583709,31.2594961,,413,,['Chinese restaurant'],"{'Saturday': '10\u202fAM–12\u202fAM', 'Sunday': '10\u202fAM–12\u202fAM', 'Monday': '10\u202fAM–12\u202fAM', 'Tuesday': '10\u202fAM–12\u202fAM', 'Wednesday': '10\u202fAM–12\u202fAM', 'Thursday': '10\u202fAM–12\u202fAM', 'Friday': '10\u202fAM–12\u202fAM'}",203+ Photos,02 23782702,,,"Lan Yuan Restaurant, 84 Rd 9, Maadi Al Khabiri Ash Sharqeyah, Maadi, Cairo Governorate 11728",,EG,,restaurants
0x14584b75d8575b6f:0x83a2393db1cbee6d,Djoser Oasis Restaurant,,29.8641342,31.2233739,,18,,['Restaurant'],"{'Saturday': '9\u202fAM–6\u202fPM', 'Sunday': '9\u202fAM–6\u202fPM', 'Monday': '9\u202fAM–6\u202fPM', 'Tuesday': '9\u202fAM–6\u202fPM', 'Wednesday': '9\u202fAM–6\u202fPM', 'Thursday': '9\u202fAM–6\u202fPM', 'Friday': '9\u202fAM–6\u202fPM'}",34 Photos,012 78111156,,,"Djoser Oasis Restaurant, Saqqara, Saqarah, Badrshein, Giza Governorate 3352114",,EG,,restaurants
0x145849b83be5340b:0x3910be5004edbdd3,Sakkara Restaurant,,29.8897603,31.2141375,,37,,['Restaurant'],,69+ Photos,,,,"Sakkara Restaurant, 1 Abu Seer Road, Abusir, Badrshein, Giza Governorate 3352236",,EG,,restaurants
0x14584ff8c7822e11:0x3808da3c343895d2,Khufu's Restaurant,https://www.khufus.com,29.9783323,31.1242706,$$$$,2418,Very expensive,"['Egyptian restaurant', 'Fine dining restaurant', 'Restaurant']","{'Saturday': '9\u202fAM–4\u202fPM', 'Sunday': '9\u202fAM–4\u202fPM', 'Monday': '9\u202fAM–4\u202fPM', 'Tuesday': '9\u202fAM–4\u202fPM', 'Wednesday': '9\u202fAM–4\u202fPM', 'Thursday': '9\u202fAM–4\u202fPM', 'Friday': '9\u202fAM–4\u202fPM'}",4280+ Photos,010 80058888,"[['https://khufus.com/reservations', 'khufus.com', None, None, ',AOvVaw3JBuZm_sF4OQ4PkBVG9iwX,,0ahUKEwj5ktO6udOMAxVD8MkDHW5kFfMQ2ZABCIYZKBQ,']]",,"X4HF+8P Khufu's Restaurant, Nazlet El-Semman, Al Haram, Giza Governorate 12512",,EG,,restaurants
0x1458413be80d13b1:0xbfd65512546cd54a,Planet Africa,,30.0731694,31.3460041,$$,579,Moderately expensive,['Restaurant'],"{'Saturday': '12\u202fPM–12\u202fAM', 'Sunday': '12\u202fPM–12\u202fAM', 'Monday': '12\u202fPM–12\u202fAM', 'Tuesday': '12\u202fPM–12\u202fAM', 'Wednesday': '12\u202fPM–12\u202fAM', 'Thursday': '12\u202fPM–12\u202fAM', 'Friday': '12\u202fPM–12\u202fAM'}",530+ Photos,02 24802949,,,"Planet Africa, سيتي ستارز مول، Omar Ibn El-Khattab, Masaken Al Mohandesin, Nasr City, Cairo Governorate 11765",,EG,,restaurants
0x14584ffed3df634d:0x7cc427ee33186368,Blue Restaurant & Lounge,https://www.facebook.com,29.9636189,31.0900245,$$,495,Moderately expensive,"['Restaurant', 'Cafe']","{'Saturday': '10\u202fAM–4\u202fAM', 'Sunday': '10\u202fAM–4\u202fAM', 'Monday': '10\u202fAM–4\u202fAM', 'Tuesday': '10\u202fAM–4\u202fAM', 'Wednesday': '10\u202fAM–4\u202fAM', 'Thursday': '10\u202fAM–4\u202fAM', 'Friday': '1\u202fPM–4\u202fAM'}",85+ Photos,010 32244434,,,"Blue Restaurant & Lounge، البوابة الرابعة، ٤٢٣ل, Elgiesh Rd, Giza Governorate",,EG,,restaurants
0x14597970f359859f:0x5aeebffe2d5ccfcc,Rustica Restaurant & Cafe,,29.3140502,30.8520612,,55,,['Italian restaurant'],"{'Saturday': '9\u202fAM–2\u202fAM', 'Sunday': '9\u202fAM–2\u202fAM', 'Monday': '9\u202fAM–2\u202fAM', 'Tuesday': '9\u202fAM–2\u202fAM', 'Wednesday': '9\u202fAM–2\u202fAM', 'Thursday': '9\u202fAM–2\u202fAM', 'Friday': '9\u202fAM–2\u202fAM'}",21 Photos,010 66669319,,,"8V72+GR8 Rustica Restaurant & Cafe, Al Nazalawi, Qesm Al Fayoum, First Al Faiyum, Faiyum Governorate 2934316",,EG,,restaurants
0x14584f6733c60eb5:0x2bdfe3c074411348,Queen Cleopatra Restaurant & Coffee,,29.9680987,31.146183,$$,1256,Moderately expensive,['Restaurant'],"{'Saturday': '12\u202fPM–12\u202fAM', 'Sunday': '12\u202fPM–12\u202fAM', 'Monday': 'Open 24 hours', 'Tuesday': '12\u202fPM–12\u202fAM', 'Wednesday': '12\u202fPM–12\u202fAM', 'Thursday': '12\u202fPM–12\u202fAM', 'Friday': '12\u202fPM–12\u202fAM'}",835+ Photos,02 33837330,,,"X49W+6FM Queen Cleopatra Restaurant & Coffee, امتداد ش ابو الهول، Nazlet El-Semman, Al Giza, Giza Governorate",,EG,,restaurants
0x14583d56794c16db:0xf741edf9e8b2b703,Kazoku,https://www.kazokuegypt.com,30.0612042,31.4370282,$$$$,2585,Very expensive,"['Japanese restaurant', 'Restaurant']","{'Saturday': '2\u202fPM–2\u202fAM', 'Sunday': '2\u202fPM–1\u202fAM', 'Monday': '2\u202fPM–1\u202fAM', 'Tuesday': '2\u202fPM–2\u202fAM', 'Wednesday': '2\u202fPM–1\u202fAM', 'Thursday': '2\u202fPM–2\u202fAM', 'Friday': '2\u202fPM–2\u202fAM'}",1231+ Photos,012 70004877,"[['http://www.kazokuegypt.com/contact/', 'kazokuegypt.com', None, None, ',AOvVaw2nqj0-o4yU6373CgcmV_ZL,,0ahUKEwj5ktO6udOMAxVD8MkDHW5kFfMQ2ZABCOMaKBI,']]",,"Kazoku, Swan Lake Compound, Second New Cairo, Cairo Governorate 4732401",,EG,,restaurants
0x14584fcc077eeb3f:0x590f91813682b2d0,Diva's Café & Restaurant,https://www.elmenus.com,29.9496121,31.096548,$$,762,Moderately expensive,['Restaurant'],"{'Saturday': '10\u202fAM–12\u202fAM', 'Sunday': '10\u202fAM–12\u202fAM', 'Monday': '10\u202fAM–12\u202fAM', 'Tuesday': '10\u202fAM–12\u202fAM', 'Wednesday': '10\u202fAM–12\u202fAM', 'Thursday': '10:30\u202fAM–12\u202fAM', 'Friday': '10:30\u202fAM–12\u202fAM'}",158+ Photos,010 06508090,,,"W3XW+RJV Diva's Café & Restaurant, First 6th of October, Giza Governorate 3510121",,EG,,restaurants
0x145855da1aab6935:0xdf229985f426b742,Lazezo Cafee Restaurant,,29.9407667,30.929536,,47,,['Restaurant'],"{'Saturday': '9\u202fAM–2\u202fAM', 'Sunday': '9\u202fAM–2\u202fAM', 'Monday': '9\u202fAM–2\u202fAM', 'Tuesday': '9\u202fAM–2\u202fAM', 'Wednesday': '9\u202fAM–2\u202fAM', 'Thursday': '9\u202fAM–2\u202fAM', 'Friday': '9\u202fAM–2\u202fAM'}",2 Photos,011 45257699,,,"WWRH+8R3 Lazezo Cafee Restaurant, Abd Al Salam Amin - Al Salam St, First 6th of October, 6th of October City (2), Giza Governorate 3226160",,EG,,restaurants
0x145979815eac49e7:0xbf4cc0d7c3c259a6,بيتزا بيانكي Pianky,https://www.facebook.com,29.3109242,30.8489382,,5,,['Pizza restaurant'],,3 Photos,012 81291255,,,"بيتزا بيانكي Pianky, 9 Gamal Abd El-Nasir, Qesm Al Fayoum, First Al Faiyum, Faiyum Governorate 2934201",,EG,,restaurants
0x145815f696d11991:0x42d71dcfab3866e,My Kind Of Place,https://www.hilton.com,30.1061828,31.365305,,21,,['Breakfast restaurant'],"{'Saturday': '7\u202fAM–1\u202fAM', 'Sunday': '7\u202fAM–1\u202fAM', 'Monday': '7\u202fAM–1\u202fAM', 'Tuesday': '7\u202fAM–1\u202fAM', 'Wednesday': '7\u202fAM–1\u202fAM', 'Thursday': '7\u202fAM–1\u202fAM', 'Friday': '7\u202fAM–1\u202fAM'}",51+ Photos,02 22677730,,,"My Kind Of Place, ‪Hilton Cairo، Uruba Street‬، Sheraton Al Matar, El Nozha, Cairo Governorate 11511",,EG,,restaurants
0x14584125b6ddd7cb:0x32e204158086d8ab,Vivo-the nile Ritz-Carlton,https://www.ritzcarlton.com,30.0457,31.2321782,,256,,['Restaurant'],"{'Saturday': '12:30–3:30\u202fPM', 'Sunday': '12:30–3:30\u202fPM', 'Monday': '12:30–3:30\u202fPM', 'Tuesday': '12:30–3:30\u202fPM', 'Wednesday': '12:30–3:30\u202fPM', 'Thursday': '12:30–3:30\u202fPM', 'Friday': '12:30–3:30\u202fPM'}",175+ Photos,012 77233582,,,"Vivo-the nile Ritz-Carlton، ‪1113 Corniche El Nil‬، Second floor, Cairo Governorate 11221",,EG,,restaurants
0x14367b4cbf181b19:0xf38cf2848dfeeff1,Makka Restaurant,,24.0986618,32.9005735,$$,2322,Moderately expensive,"['Meat dish restaurant', 'Fast food restaurant']","{'Saturday': '12\u202fPM–1\u202fAM', 'Sunday': '12\u202fPM–1\u202fAM', 'Monday': '12\u202fPM–1\u202fAM', 'Tuesday': '12\u202fPM–1\u202fAM', 'Wednesday': '12\u202fPM–1\u202fAM', 'Thursday': '12\u202fPM–1\u202fAM', 'Friday': '12\u202fPM–1\u202fAM'}",715+ Photos,097 2440232,,,"Makka Restaurant، 143 abtal el tahrir St DOWNTOWN, Aswan, Aswan Governorate",,EG,,restaurants
0x14599fd2ab4371fb:0xe141771085b4bcf9,مطعم الشيف ابو فارس,,29.4968733,30.9113097,,17,,['Restaurant'],"{'Saturday': 'Open 24 hours', 'Sunday': 'Closed', 'Monday': 'Open 24 hours', 'Tuesday': 'Open 24 hours', 'Wednesday': 'Open 24 hours', 'Thursday': 'Closed', 'Friday': 'Open 24 hours'}",Photos,010 20362824,,,"FWW6+PGV مطعم الشيف ابو فارس، كفر المسلات - طامية، قصر رشوان، مركز طامية،, Tamiya, Faiyum Governorate",,EG,,restaurants
0x14584167ee5e9583:0x820aab1c14c40859,La Zisa,https://www.marriott.com,30.0629956,31.2273621,,121,,['Italian restaurant'],"{'Saturday': '6\u202fAM–11:30\u202fPM', 'Sunday': '6\u202fAM–11:30\u202fPM', 'Monday': '6\u202fAM–11:30\u202fPM', 'Tuesday': '6\u202fAM–11:30\u202fPM', 'Wednesday': '6\u202fAM–11:30\u202fPM', 'Thursday': '6\u202fAM–11:30\u202fPM', 'Friday': '6\u202fAM–11:30\u202fPM'}",267+ Photos,010 06776691,,,"La Zisa, 1189 Nile Corniche, Boulaq Num.5, Bulaq, Cairo Governorate 4311102",,EG,,restaurants
0x145849a4af41bd39:0x359629f4b09a67de,مطعم سقاره السياحي Sakkara restaurant,,29.8961657,31.2263709,$$,282,Moderately expensive,['Restaurant'],"{'Saturday': '11\u202fAM–12\u202fAM', 'Sunday': '11\u202fAM–12\u202fAM', 'Monday': '11\u202fAM–12\u202fAM', 'Tuesday': '11\u202fAM–12\u202fAM', 'Wednesday': '11\u202fAM–12\u202fAM', 'Thursday': '11\u202fAM–12\u202fAM', 'Friday': '11\u202fAM–12\u202fAM'}",383+ Photos,02 38151888,,,"مطعم سقاره السياحي Sakkara restaurant, ناصية أبوصير المريرطيه, Badrshein",,EG,,restaurants
0x14583de4f90f256f:0x8dc4ce7b070fd27e,Brass Monkey Cairo,https://www.elsewedy-hospitality.com,30.0074729,31.4021672,,334,,['Restaurant'],"{'Saturday': '4\u202fPM–2\u202fAM', 'Sunday': '4\u202fPM–2\u202fAM', 'Monday': '4\u202fPM–2\u202fAM', 'Tuesday': '4\u202fPM–2\u202fAM', 'Wednesday': '4\u202fPM–2\u202fAM', 'Thursday': '4\u202fPM–2\u202fAM', 'Friday': '4\u202fPM–2\u202fAM'}",105+ Photos,011 14829444,,,"Brass Monkey Cairo, Uvenues Mall, New Cairo 1, Cairo Governorate 11835",,EG,,restaurants
0x14584fc30d351079:0x5460950cad52aac,Khal Syrian shawarma restaurant,,29.962681,31.0929685,,56,,['Syrian restaurant'],"{'Saturday': '7\u202fAM–11:59\u202fPM', 'Sunday': '7\u202fAM–11:59\u202fPM', 'Monday': '7\u202fAM–11:59\u202fPM', 'Tuesday': '7\u202fAM–11:59\u202fPM', 'Wednesday': '7\u202fAM–11:59\u202fPM', 'Thursday': '7\u202fAM–11:59\u202fPM', 'Friday': '7\u202fAM–11:59\u202fPM'}",9 Photos,010 92058098,,,"X37V+35G Khal Syrian shawarma restaurant, Al Haram, Giza Governorate 3510221",,EG,,restaurants
0x145817e454c7466d:0xb8ece5f2d22cba0d,Ahlein,https://www.marriott.com,30.072018,31.4343993,,53,,['Diner'],"{'Saturday': '6\u202fPM–1\u202fAM', 'Sunday': '6\u202fPM–1\u202fAM', 'Monday': '6\u202fPM–1\u202fAM', 'Tuesday': '6\u202fPM–1\u202fAM', 'Wednesday': '6\u202fPM–1\u202fAM', 'Thursday': '6\u202fPM–1\u202fAM', 'Friday': '6\u202fPM–1\u202fAM'}",53+ Photos,02 24065851,,,"Ahlein, Ring Rd, Mirage City, New Cairo 3, Cairo Governorate 11757",,EG,,restaurants
0x14599fd19d32a061:0x20bd9a9a70e1ae90,مطعم عظيمه مشويات وكريب,,29.5002012,30.9076514,,14,,['Restaurant'],"{'Saturday': 'Open 24 hours', 'Sunday': 'Open 24 hours', 'Monday': 'Open 24 hours', 'Tuesday': 'Open 24 hours', 'Wednesday': 'Open 24 hours', 'Thursday': 'Open 24 hours', 'Friday': 'Open 24 hours'}",8 Photos,010 64947013,,,"مطعم عظيمه مشويات وكريب, Qasr Rashwan, Tamiya, Faiyum Governorate 2971410",,EG,,restaurants
0x1459792f6238ba9f:0x70862fc0ebb319d7,Ozzi Restaurant,https://www.facebook.com,29.3094954,30.8437612,$$,1018,Moderately expensive,"['Barbecue restaurant', 'Fast food restaurant', 'Restaurant']","{'Saturday': 'Open 24 hours', 'Sunday': 'Open 24 hours', 'Monday': 'Open 24 hours', 'Tuesday': 'Open 24 hours', 'Wednesday': 'Open 24 hours', 'Thursday': 'Open 24 hours', 'Friday': 'Open 24 hours'}",56+ Photos,010 13400040,,,"Ozzi Restaurant, El-Khalifa El-Maamoun, Qesm Al Fayoum, First Al Faiyum, Faiyum Governorate 2934001",,EG,,restaurants
0x14584f9f9684eabd:0x58afbcafa5e4de9d,Tutti Restaurant,,29.9582205,31.1031041,,7,,['Italian restaurant'],"{'Saturday': 'Open 24 hours', 'Sunday': 'Open 24 hours', 'Monday': 'Open 24 hours', 'Tuesday': 'Open 24 hours', 'Wednesday': 'Open 24 hours', 'Thursday': 'Open 24 hours', 'Friday': 'Open 24 hours'}",3 Photos,011 45611666,,,"Tutti Restaurant, 2 Street 2, Al Haram, Giza Governorate 3510401",,EG,,restaurants
0x14584a2eca16d1d5:0x5cddf5ff9c94f141,Restaurant Pharous,,29.8644147,31.2240716,,436,,['Izakaya restaurant'],"{'Saturday': '9\u202fAM–4\u202fPM', 'Sunday': '9\u202fAM–4\u202fPM', 'Monday': '9\u202fAM–4\u202fPM', 'Tuesday': '9\u202fAM–4\u202fPM', 'Wednesday': '9\u202fAM–4\u202fPM', 'Thursday': '9\u202fAM–4\u202fPM', 'Friday': '9\u202fAM–4\u202fPM'}",538+ Photos,,,,"V67F+QJ8 Restaurant Pharous, Saqarah, Badrshein, Giza Governorate 3352114",,EG,,restaurants
0x145971ac7d606cdf:0xa47bebb76f75ff0c,Shahrazad restaurant,,29.4757158,30.7345952,,24,,['Restaurant'],,19 Photos,010 01833608,,,"FPGM+7RQ Shahrazad restaurant, Shakshouk, Ibsheway, Faiyum Governorate 2955456",,EG,,restaurants
0x14584b709f9f0e2f:0x776de82035b3e2d8,Bayt elreef restaurant🌴بيت الريف,https://www.tiktok.com,29.7946388,31.228847,,35,,['Restaurant'],"{'Saturday': '9\u202fAM–10\u202fPM', 'Sunday': '10\u202fAM–10\u202fPM', 'Monday': '10\u202fAM–10\u202fPM', 'Tuesday': '10\u202fAM–10\u202fPM', 'Wednesday': '10\u202fAM–10\u202fPM', 'Thursday': '10\u202fAM–10\u202fPM', 'Friday': '9\u202fAM–10\u202fPM'}",480+ Photos,,,,"Bayt elreef restaurant🌴بيت الريف, بجوار بركة الملك, Monshaat Dahshour, Badrshein, Giza Governorate 12918",,EG,,restaurants
0x145971d425d42ec7:0x2afb7b8ec1cda12,Mefreh 2 Fish Restaurant,,29.4628784,30.7158464,$$,717,Moderately expensive,['Restaurant'],"{'Saturday': 'Open 24 hours', 'Sunday': 'Open 24 hours', 'Monday': 'Open 24 hours', 'Tuesday': 'Open 24 hours', 'Wednesday': 'Open 24 hours', 'Thursday': 'Open 24 hours', 'Friday': 'Open 24 hours'}",806+ Photos,010 08047298,,,"Mefreh 2 Fish Restaurant, مدخل شكشوك، Shakshouk, Ibsheway, Faiyum Governorate 2814001",,EG,,restaurants
0x1458409fe312f077:0x38ed746841b3f83,Khan El Khalili Restaurant & Naguib Mahfouz Cafe,https://www.w.facebook.com,30.0480626,31.2616185,$$,4407,Moderately expensive,['Cafe'],"{'Saturday': '10\u202fAM–12\u202fAM', 'Sunday': '10\u202fAM–12\u202fAM', 'Monday': '10\u202fAM–12\u202fAM', 'Tuesday': '10\u202fAM–12\u202fAM', 'Wednesday': '10\u202fAM–12\u202fAM', 'Thursday': '10\u202fAM–12\u202fAM', 'Friday': '10\u202fAM–12\u202fAM'}",4633+ Photos,02 25903788,"[['https://www.instagram.com/khanelkhalilirestaurant?igsh=MW51bmduZGp4N2wwMg==', 'instagram.com', None, None, ',AOvVaw1eCDJLzet4o2fkP0wQedXf,,0ahUKEwj5ktO6udOMAxVD8MkDHW5kFfMQ2ZABCJwhKBQ,']]",,"Khan El Khalili Restaurant & Naguib Mahfouz Cafe, 5 ش Sekat Al Badstan, خان الخليلى، El Gamaliya, Cairo Governorate 4331310",,EG,,restaurants
0x14584ff5b15c05b7:0x7dd99dcb2fc38,Al Morshedy Seafood restaurant,,29.9837394,31.0983987,$$,927,Moderately expensive,['Seafood restaurant'],"{'Saturday': '12\u202fPM–2\u202fAM', 'Sunday': '12\u202fPM–12\u202fAM', 'Monday': '12\u202fPM–2\u202fAM', 'Tuesday': '12\u202fPM–2\u202fAM', 'Wednesday': '12\u202fPM–2\u202fAM', 'Thursday': '12\u202fPM–2\u202fAM', 'Friday': '12\u202fPM–2\u202fAM'}",313+ Photos,010 17888807,,,"Al Morshedy Seafood restaurant، ٣٣١أ حدائق الاهرام الضغط العالي منطقه أ، 332 الضغط العالي, Al Haram, Giza Governorate 3510605",,EG,,restaurants
0x145971d03d6313f9:0x3b5665857dc02ef1,Dananeer Restaurant,,29.465372,30.722653,$$,71,Moderately expensive,['Restaurant'],"{'Saturday': 'Open 24 hours', 'Sunday': 'Open 24 hours', 'Monday': 'Open 24 hours', 'Tuesday': 'Open 24 hours', 'Wednesday': 'Open 24 hours', 'Thursday': 'Open 24 hours', 'Friday': 'Open 24 hours'}",25 Photos,084 6830314,,,"FP8F+43R Dananeer Restaurant, Bouhairet Qaroun Rd.، Shakshouk, EL FAYOUM، Faiyum Governorate 2867210",,EG,,restaurants
0x14584fdcd9f2c579:0x90ec19798bc59c7e,Restaurant Hadramawt,,29.9646109,31.0900765,$$,297,Moderately expensive,['Restaurant'],"{'Saturday': '10\u202fAM–12\u202fAM', 'Sunday': '10\u202fAM–12\u202fAM', 'Monday': '10\u202fAM–12\u202fAM', 'Tuesday': '10\u202fAM–12\u202fAM', 'Wednesday': '10\u202fAM–12\u202fAM', 'Thursday': '10\u202fAM–12\u202fAM', 'Friday': '10\u202fAM–12\u202fAM'}",7 Photos,010 61234214,,,"Restaurant Hadramawt، 419ل, Al Haram",,EG,,restaurants
0x14585300381478ab:0xcace75bd8fd0a7db,Dr kef restaurants,,29.9079798,31.0580321,,11,,['Restaurant'],"{'Saturday': 'Open 24 hours', 'Sunday': 'Open 24 hours', 'Monday': 'Open 24 hours', 'Tuesday': 'Open 24 hours', 'Wednesday': 'Open 24 hours', 'Thursday': 'Open 24 hours', 'Friday': 'Open 24 hours'}",41+ Photos,012 22797940,,,"W355+56V Dr kef restaurants, First 6th of October, October Gardens, Giza Governorate 3275101",,EG,,restaurants
0x145840d37287d979:0x15f309028c223efe,La Palmeraie Moroccan Restaurant,https://www.sofitel.accor.com,30.0385423,31.2249037,,746,,['Restaurant'],"{'Saturday': '6:30\u202fPM–2\u202fAM', 'Sunday': '6:30\u202fPM–2\u202fAM', 'Monday': '6:30\u202fPM–2\u202fAM', 'Tuesday': '6:30\u202fPM–2\u202fAM', 'Wednesday': '6:30\u202fPM–2\u202fAM', 'Thursday': '6:30\u202fPM–2\u202fAM', 'Friday': '6:30\u202fPM–2\u202fAM'}",499+ Photos,02 27373737,,,"La Palmeraie Moroccan Restaurant، 3 el Thawra council street, sofitel el gezirah, zamalek, Cairo Governorate 11518",,EG,,restaurants
0x1458551e329c7133:0xe0e77508d8602ff3,مطعم فات فوود,,29.9461568,30.9280478,,20,,['Hamburger restaurant'],"{'Saturday': '3\u202fPM–3\u202fAM', 'Sunday': '3\u202fPM–3\u202fAM', 'Monday': '3\u202fPM–3\u202fAM', 'Tuesday': '2:30\u202fPM–3\u202fAM', 'Wednesday': '3\u202fPM–3\u202fAM', 'Thursday': '3\u202fPM–3\u202fAM', 'Friday': '3\u202fPM–3\u202fAM'}",42 Photos,011 20134348,,,"مطعم فات فوود، متقاطع مع محور الكفراوى - خلف المشتل، امتداد شارع الخزان, First 6th of October, 6th of October City (2), Giza Governorate 12563",,EG,,restaurants
0x1459bd4846b70897:0x8737781adfc5a0d5,كافيتريا أولاد حسني,,29.4934557,31.0869423,,20,,['Restaurant'],,8 Photos,,,,"F3VP+9Q كافيتريا أولاد حسني, Tamiya, Faiyum Governorate 2978001",,EG,,restaurants
0x1459a303682e4bdd:0xa9279212a2ad66ed,كايرو ريست هاوس,,29.569525,31.05337,,7,,['Buffet restaurant'],"{'Saturday': 'Open 24 hours', 'Sunday': 'Open 24 hours', 'Monday': 'Open 24 hours', 'Tuesday': 'Open 24 hours', 'Wednesday': 'Open 24 hours', 'Thursday': 'Open 24 hours', 'Friday': 'Open 24 hours'}",Photos,,,,"كايرو ريست هاوس، طامية, Monshaat Doctor El-Gammal، الفيوم, Faiyum Governorate",,EG,,restaurants
0x14584f37ff1a2a1b:0x3b6ffb6ece5beb68,Da Fang Chinese restaurant 大方中餐厅,,29.9690051,31.1464721,,71,,['Chinese restaurant'],"{'Saturday': '10\u202fAM–11\u202fPM', 'Sunday': '10\u202fAM–11\u202fPM', 'Monday': '10\u202fAM–11\u202fPM', 'Tuesday': '10\u202fAM–11\u202fPM', 'Wednesday': '10\u202fAM–11\u202fPM', 'Thursday': '10\u202fAM–11\u202fPM', 'Friday': '10\u202fAM–11\u202fPM'}",120+ Photos,011 18500037,,,"Da Fang Chinese restaurant 大方中餐厅, 106 Abo El-Houl El-Syahi St, Haram, Giza Governorate 12512",,EG,,restaurants
0x14597928127f812b:0xbd8cc29c005f1f3d,Essawy Abou Abdou Restaurant,,29.3081964,30.8486158,,105,,['Barbecue restaurant'],"{'Saturday': 'Open 24 hours', 'Sunday': 'Open 24 hours', 'Monday': 'Open 24 hours', 'Tuesday': 'Open 24 hours', 'Wednesday': 'Open 24 hours', 'Thursday': 'Open 24 hours', 'Friday': 'Open 24 hours'}",18 Photos,010 10666627,,,"Essawy Abou Abdou Restaurant, Gaafar, Qesm Al Fayoum, First Al Faiyum, Faiyum Governorate 2931002",,EG,,restaurants
0x14584fded10bf01f:0x5df80dbf882e0201,مطعم الخديوي - Khedive Restaurant,,29.9678233,31.1463123,,63,,"['Restaurant', 'Coffee shop']","{'Saturday': '10:30\u202fAM–1\u202fAM', 'Sunday': '10:30\u202fAM–1\u202fAM', 'Monday': '10:30\u202fAM–1\u202fAM', 'Tuesday': '10:30\u202fAM–1\u202fAM', 'Wednesday': '10:30\u202fAM–1\u202fAM', 'Thursday': '10:30\u202fAM–1\u202fAM', 'Friday': '10:30\u202fAM–1\u202fAM'}",68+ Photos,012 22603185,,,"مطعم الخديوي - Khedive Restaurant، شارع الورد من، أبو الهول السياحي، Al Haram, Giza Governorate 12557",,EG,,restaurants
0x145823c378981f93:0x106098e8c9497068,Hookah Tagamo3 (New Cairo),https://www.instagram.com,30.0250459,31.4654241,$$$$,1228,Very expensive,['Cafe'],"{'Saturday': 'Open 24 hours', 'Sunday': 'Open 24 hours', 'Monday': 'Open 24 hours', 'Tuesday': 'Open 24 hours', 'Wednesday': 'Open 24 hours', 'Thursday': 'Open 24 hours', 'Friday': 'Open 24 hours'}",437+ Photos,012 08711185,,,"Hookah Tagamo3 (New Cairo), S Teseen, New Cairo 1, Cairo Governorate 11865",,EG,,restaurants
0x145855e8db059799:0xdcdc4c8a1c207630,Olive & Oil Restaurant,,29.938126,30.91398,,5,,['Restaurant'],"{'Saturday': '10\u202fAM–1\u202fAM', 'Sunday': '10\u202fAM–1\u202fAM', 'Monday': '10\u202fAM–1\u202fAM', 'Tuesday': '10\u202fAM–1\u202fAM', 'Wednesday': '10\u202fAM–1\u202fAM', 'Thursday': '10\u202fAM–1\u202fAM', 'Friday': '10\u202fAM–1\u202fAM'}",5 Photos,011 10008608,,,"Olive & Oil Restaurant, 6th of October City (2), Giza Governorate 3225210",,EG,,restaurants
0x14597958a043901b:0xe01846a5ccf45e29,Rozana روزانا,https://www.facebook.com,29.3152576,30.8529901,,512,,['Fast food restaurant'],"{'Saturday': 'Open 24 hours', 'Sunday': 'Open 24 hours', 'Monday': 'Open 24 hours', 'Tuesday': 'Open 24 hours', 'Wednesday': 'Open 24 hours', 'Thursday': 'Open 24 hours', 'Friday': 'Open 24 hours'}",77+ Photos,010 30393274,,,"Rozana روزانا, المسلة, First Al Faiyum, Faiyum Governorate 2934316",,EG,,restaurants
0x1459709cb424686d:0x6fc150c312f91899,Hawari Restaurant Sanhour,,29.406386,30.7697807,$$,275,Moderately expensive,['Restaurant'],"{'Saturday': '8\u202fAM–3\u202fAM', 'Sunday': '8\u202fAM–3\u202fAM', 'Monday': '8\u202fAM–3\u202fAM', 'Tuesday': '8\u202fAM–3\u202fAM', 'Wednesday': '8\u202fAM–3\u202fAM', 'Thursday': '8\u202fAM–3\u202fAM', 'Friday': '8\u202fAM–3\u202fAM'}",34 Photos,011 57781923,,,"Hawari Restaurant Sanhour, Ezbet Maati Ghesan - Sonoras, Sanhour, Sinnuris, Faiyum Governorate 2950794",,EG,,restaurants
0x1458558eb3e3a3d3:0x56f52c8b97fc6fab,4Stars Restaurant and Cafee,,29.9266883,30.9216228,,1,,['Baden restaurant'],"{'Saturday': '6\u202fAM–2:30\u202fAM', 'Sunday': '6\u202fAM–2:30\u202fAM', 'Monday': '6\u202fAM–2:30\u202fAM', 'Tuesday': '6\u202fAM–2:30\u202fAM', 'Wednesday': '6\u202fAM–2:30\u202fAM', 'Thursday': '6\u202fAM–2:30\u202fAM', 'Friday': '6\u202fAM–2:30\u202fAM'}",8 Photos,015 1881326,,,"4Stars Restaurant and Cafee، عمارة ٨ص، مساكن الشباب, Giza Governorate",,EG,,restaurants
0x14599fe4aea64ec5:0xe03083b1a03ff2ca,الفيوم,,29.5007345,30.9114702,,6,,['Chicken restaurant'],,,,,,"GW26+7HX الفيوم, Qasr Rashwan, Tamiya, Faiyum Governorate 2971434",,EG,,restaurants
0x1459a15b44e6dec5:0xd3cd392c22df4fae,رست اولاد عبدالونيس,,29.5506985,30.9287634,,,,['Family restaurant'],,,,,,"HW2H+7GC رست اولاد عبدالونيس, Al Gemhoureya, Tamiya, Faiyum Governorate 2976047",,EG,,restaurants
0x1459792d640d9fb3:0x352c68136e51f6ad,Alkhedaiwy Restaurant,https://www.facebook.com,29.3025802,30.8383927,$$,1201,Moderately expensive,['Fast food restaurant'],"{'Saturday': '9\u202fAM–3\u202fAM', 'Sunday': '9\u202fAM–3\u202fAM', 'Monday': '9\u202fAM–3\u202fAM', 'Tuesday': '9\u202fAM–3\u202fAM', 'Wednesday': '9\u202fAM–3\u202fAM', 'Thursday': '9\u202fAM–3\u202fAM', 'Friday': '9\u202fAM–3\u202fAM'}",103+ Photos,084 6367262,,,"8R3Q+29J Alkhedaiwy Restaurant, Batal Al Salam, Qesm Al Fayoum, Second Al Faiyum, Faiyum Governorate 2922043",,EG,,restaurants
0x14599f1fbbc05559:0xec6ee4eefd138073,مطعم شوكه وسكينه,,29.4703477,30.955218,$,42,Inexpensive,['Fast food restaurant'],"{'Saturday': 'Open 24 hours', 'Sunday': 'Open 24 hours', 'Monday': 'Open 24 hours', 'Tuesday': 'Open 24 hours', 'Wednesday': 'Open 24 hours', 'Thursday': 'Open 24 hours', 'Friday': 'Open 24 hours'}",29 Photos,010 16162414,,,"FXC4+43P مطعم شوكه وسكينه، طامية، مدينة طامية، مركز طامية،, Tamiya, Faiyum Governorate",,EG,,restaurants
0x14597138d592cb9f:0x787530eacb8df2c3,مطعم وكافيه النورس,,29.4688253,30.7724516,,25,,['Restaurant'],,7 Photos,,,,"FQ9C+GXP مطعم وكافيه النورس، السعيدية، سنورس،، الظهير الصحراوى لمحافظة الفيوم، الفيوم،, Sinnuris",,EG,,restaurants
0x145999df616c3707:0xd98297777d670d67,مطعم البركه,,29.4442901,31.0000127,,4,,['Restaurant'],,,,,,"C2V2+P26 مطعم البركه, El-Rawda, Tamiya, Faiyum Governorate 2964053",,EG,,restaurants
0x14597b43152c763f:0x6e65c39c57a960f5,مطعم فراخ ومشويات,,29.334834,30.7525798,,15,,['Restaurant'],,Photos,,,,"8QM3+W2P مطعم فراخ ومشويات، مدينة الفيوم - طهبار، طهبار، تلات،, Faiyum Governorate 2940543",,EG,,restaurants
0x14599f5905ad1d2b:0x63c6868110348c7b,مطعم أولاد عشري 2,,29.4705383,30.9540819,,1,,['Restaurant'],"{'Saturday': 'Open 24 hours', 'Sunday': 'Open 24 hours', 'Monday': 'Open 24 hours', 'Tuesday': 'Open 24 hours', 'Wednesday': 'Open 24 hours', 'Thursday': 'Closed', 'Friday': 'Open 24 hours'}",Photos,010 92498485,,,"مطعم أولاد عشري 2، مساكن المرور, Madinet Tameyah, Tamiya, Faiyum Governorate 2963741",,EG,,restaurants
0x1459998288f658c7:0x6a9c4df25bdf8772,هشام البراني,,29.4875734,31.0277171,,7,,"['Restaurant', 'Meat dish restaurant']",,4 Photos,011 19717963,,,"هشام البراني, Monshaat Doctor El-Gammal, Tamiya, Faiyum Governorate 2973717",,EG,,restaurants
0x145991ce4276e711:0x39e8e4306f57bc8a,مطعم الشيخ محمد,,29.3848092,31.0949223,$$,506,Moderately expensive,['Restaurant'],"{'Saturday': 'Open 24 hours', 'Sunday': 'Open 24 hours', 'Monday': 'Open 24 hours', 'Tuesday': 'Open 24 hours', 'Wednesday': 'Open 24 hours', 'Thursday': 'Open 24 hours', 'Friday': 'Open 24 hours'}",53+ Photos,010 11292948,,,"مطعم الشيخ محمد, Tamiya, Faiyum Governorate 2966007",,EG,,restaurants
0x14599f0024dda6a5:0x11e57d4a9c3e2752,مطعم كبابجي وبروست ابو يونس,,29.4763951,30.9601258,,,,['Chicken restaurant'],,,,,,"FXG6+F2J مطعم كبابجي وبروست ابو يونس, Madinet Tameyah, Tamiya, Faiyum Governorate 2963770",,EG,,restaurants
0x14599f7d89091903:0xf0f15620ce340cef,Leeda ع الناصية,,29.4712847,30.9534346,,3,,"['Restaurant', 'Cafe']","{'Saturday': 'Open 24 hours', 'Sunday': 'Open 24 hours', 'Monday': 'Open 24 hours', 'Tuesday': 'Open 24 hours', 'Wednesday': 'Open 24 hours', 'Thursday': 'Open 24 hours', 'Friday': 'Open 24 hours'}",7 Photos,,,,"Leeda ع الناصية، امام الحديقة العامة, Madinet Tameyah, Tamiya, Faiyum Governorate 2963743",,EG,,restaurants
0x145847734e2c1357:0x7541e311a645597b,First Nile Boat,https://www.fourseasons.com,30.0245333,31.2180883,,180,,['Event venue'],"{'Saturday': '1\u202fPM–12\u202fAM', 'Sunday': '1\u202fPM–12\u202fAM', 'Monday': '1\u202fPM–12\u202fAM', 'Tuesday': '1\u202fPM–12\u202fAM', 'Wednesday': '1\u202fPM–12\u202fAM', 'Thursday': '1\u202fPM–12\u202fAM', 'Friday': '1\u202fPM–12\u202fAM'}",246+ Photos,02 35671600,,,"First Nile Boat, 136 Nile St, Oula, El Omraniya, الغربية 12612",,EG,,restaurants
0x14596493d5015fe1:0x2c1b77a5186e5998,El Shalaqany Restaurant,,29.3570143,30.6805381,,2,,['Restaurant'],"{'Saturday': '7\u202fAM–2\u202fAM', 'Sunday': '7\u202fAM–2\u202fAM', 'Monday': '7\u202fAM–2\u202fAM', 'Tuesday': '7\u202fAM–2\u202fAM', 'Wednesday': '7\u202fAM–2\u202fAM', 'Thursday': '7\u202fAM–2\u202fAM', 'Friday': '7\u202fAM–2\u202fAM'}",,011 19993772,,,"El Shalaqany Restaurant, Madinet Ibsheway, Ibsheway, Faiyum Governorate 2861110",,EG,,restaurants
0x14584fc221df7c79:0x1a5c208df4c146bf,El Hadaba Fish Restaurant,,29.964468,31.0963082,,73,,['Seafood restaurant'],"{'Saturday': '10\u202fAM–9\u202fPM', 'Sunday': '10\u202fAM–9\u202fPM', 'Monday': '10\u202fAM–9\u202fPM', 'Tuesday': '10\u202fAM–9\u202fPM', 'Wednesday': '10\u202fAM–9\u202fPM', 'Thursday': '10\u202fAM–9\u202fPM', 'Friday': '10\u202fAM–9\u202fPM'}",57+ Photos,011 58684981,,,"X37W+QGM El Hadaba Fish Restaurant, Al Haram, Giza Governorate 3510235",,EG,,restaurants
0x145979c021378bf7:0x95305a668868a4d6,Tamam Cafe & Restaurant,https://www.tamam-eg.com,29.3178678,30.8543056,$$,249,Moderately expensive,"['Italian restaurant', 'Fast food restaurant']","{'Saturday': '9\u202fAM–2\u202fAM', 'Sunday': '9\u202fAM–2\u202fAM', 'Monday': '9\u202fAM–2\u202fAM', 'Tuesday': '9\u202fPM–2\u202fAM', 'Wednesday': '9\u202fAM–2\u202fAM', 'Thursday': '9\u202fAM–2\u202fAM', 'Friday': '9\u202fAM–2\u202fAM'}",120+ Photos,010 90300049,,,"Tamam Cafe & Restaurant, Gamal Abd El-Nasir, Qesm Al Fayoum, First Al Faiyum, Faiyum Governorate 2934246",,EG,,restaurants
0x14584fc38972c4a1:0xbf70f84153d288f0,Alrakoba Restaurant & Cafe,,29.9582595,31.1016936,,49,,['Restaurant'],"{'Saturday': '12\u202fPM–4\u202fAM', 'Sunday': '12\u202fPM–4\u202fAM', 'Monday': '12\u202fPM–4\u202fAM', 'Tuesday': '12\u202fPM–4\u202fAM', 'Wednesday': '12\u202fPM–4\u202fAM', 'Thursday': '12\u202fPM–4\u202fAM', 'Friday': '2\u202fPM–4\u202fAM'}",16 Photos,012 00557043,,,"X452+8M4 Alrakoba Restaurant & Cafe, الضغط العالي، Al Haram, Giza Governorate 12556",,EG,,restaurants
0x14599f41bf188f07:0x60e91c33f3323a62,مطعم أسطورة,,29.4952126,30.9589496,,5,,['Barbecue restaurant'],,26 Photos,,,,"مطعم أسطورة، ش ٢٣يوليو عمارة البوسطه بجوار مجلس, Madinet Tameyah, Faiyum Governorate",,EG,,restaurants
0x14597403dc7638f1:0x5df1af23f4315c6a,منتجع هلا العرب,https://www.facebook.com,29.4793775,30.8101755,,313,,"['Restaurant', 'Resort hotel']",,280+ Photos,011 13005513,,,"منتجع هلا العرب, Qarun Lake Touristic Rd, Monshaat Sanoras, Sinnuris, Faiyum Governorate 2956384",,EG,,restaurants
0x14584a39a728cddf:0x7663a3278be94a5b,El Pergola Restaurant,,29.85,31.216667,,3,,['Restaurant'],"{'Saturday': '9\u202fAM–2\u202fAM', 'Sunday': '9\u202fAM–2\u202fAM', 'Monday': '9\u202fAM–2\u202fAM', 'Tuesday': '9\u202fAM–2\u202fAM', 'Wednesday': '9\u202fAM–2\u202fAM', 'Thursday': '9\u202fAM–2\u202fAM', 'Friday': '9\u202fAM–2\u202fAM'}",,02 33810080,,,"El Pergola Restaurant, Saqarah, الجيزة، Giza Governorate 3352001",,EG,,restaurants
0x145977b0b9ae4a0b:0x63b07df9873cb56f,Arab sheikh Restaurant,,29.4100755,30.8661003,$$,418,Moderately expensive,['Chicken restaurant'],"{'Saturday': 'Open 24 hours', 'Sunday': 'Open 24 hours', 'Monday': 'Open 24 hours', 'Tuesday': 'Open 24 hours', 'Wednesday': 'Open 24 hours', 'Thursday': 'Open 24 hours', 'Friday': 'Open 24 hours'}",31 Photos,010 19057808,,,"CV68+2CQ Arab sheikh Restaurant، مدينة سنورس، سنورس،, Sinnuris, Faiyum Governorate",,EG,,restaurants
0x14599fcc26ddd2ff:0x668462494bc8ad6b,Zizuo Ahmed Mahmoud Mehdi Restaurant,,29.4969043,30.9111318,$,17,Inexpensive,['Restaurant'],"{'Saturday': '10\u202fAM–12\u202fPM', 'Sunday': '10\u202fAM–12\u202fPM', 'Monday': '10\u202fAM–12\u202fPM', 'Tuesday': '10\u202fAM–12\u202fPM', 'Wednesday': '10\u202fAM–12\u202fPM', 'Thursday': '10\u202fAM–12\u202fPM', 'Friday': '10\u202fAM–12\u202fPM'}",,,,,"FWW6+QF6 Zizuo Ahmed Mahmoud Mehdi Restaurant, Qasr Rashwan, Tamiya, Faiyum Governorate 2971187",,EG,,restaurants
0x145979b01c6e5bcb:0xa68c5d7a8b7a50fb,Tamara Restaurant,,29.3142998,30.8522548,$$,115,Moderately expensive,['Izakaya restaurant'],"{'Saturday': '10\u202fAM–12\u202fAM', 'Sunday': '10\u202fAM–12\u202fAM', 'Monday': '10\u202fAM–12\u202fAM', 'Tuesday': '10\u202fAM–12\u202fAM', 'Wednesday': '10\u202fAM–12\u202fAM', 'Thursday': '10\u202fAM–12\u202fAM', 'Friday': '10\u202fAM–12\u202fAM'}",21 Photos,,,,"8V72+PW6 Tamara Restaurant, Qesm Al Fayoum, First Al Faiyum, Faiyum Governorate 2934316",,EG,,restaurants
0x14584f74545fb4b7:0x5397b82f76e498ad,9 Pyramids Lounge,https://www.facebook.com,29.9677783,31.1319209,$$$,2530,Expensive,['Restaurant'],"{'Saturday': '9\u202fAM–3:30\u202fPM', 'Sunday': '9\u202fAM–3:30\u202fPM', 'Monday': '9\u202fAM–3:30\u202fPM', 'Tuesday': '9\u202fAM–3:30\u202fPM', 'Wednesday': '9\u202fAM–3:30\u202fPM', 'Thursday': '9\u202fAM–3:30\u202fPM', 'Friday': '9\u202fAM–3:30\u202fPM'}",5017+ Photos,012 12299999,,,"9 Pyramids Lounge, Nazlet El-Semman, Al Haram, Giza Governorate 3512201",,EG,,restaurants
0x14599f0018284997:0x45bfe41ee75c338f,مطعم وكافيه ابن البلد 2,,29.4691093,30.9507193,,3,,['Restaurant'],,,,,,"FX92+P8V مطعم وكافيه ابن البلد 2، ام نادي النصر, Madinet Tameyah, Tamiya, Faiyum Governorate 2963361",,EG,,restaurants
0x14597fadb98d9755:0x1704e7d422f643be,مطعم ماكولات شعبيه,,29.3016336,30.8305192,,2,,['Restaurant'],,2 Photos,010 69899168,,,"8R2J+M62 مطعم ماكولات شعبيه, Smaha, Qesm Al Fayoum, Second Al Faiyum, Faiyum Governorate 2921080",,EG,,restaurants
0x14599f3ce7220635:0x72bd3f56145d25be,مطعم العمدة,,29.4779215,30.9567856,$$,203,Moderately expensive,"['Meat dish restaurant', 'Breakfast restaurant']","{'Saturday': 'Open 24 hours', 'Sunday': 'Open 24 hours', 'Monday': 'Open 24 hours', 'Tuesday': 'Open 24 hours', 'Wednesday': 'Open 24 hours', 'Thursday': 'Open 24 hours', 'Friday': 'Open 24 hours'}",34 Photos,010 06163236,,,"مطعم العمدة، المدارس, Madinet Tameyah, Tamiya, Faiyum Governorate 2970288",,EG,,restaurants
0x145967001c8c6b9d:0x49a96097e1adbcf1,Golden Horn Restaurant,,29.4126077,30.5306129,,2,,['Restaurant'],"{'Saturday': 'Open 24 hours', 'Sunday': 'Open 24 hours', 'Monday': 'Open 24 hours', 'Tuesday': 'Open 24 hours', 'Wednesday': 'Open 24 hours', 'Thursday': 'Open 24 hours', 'Friday': 'Open 24 hours'}",14 Photos,010 69449966,,,"CG7J+26X Golden Horn Restaurant، مركز يوسف الصديق, Al Shawashna, Faiyum Governorate 2854040",,EG,,restaurants
0x14599f087f203bdf:0xfaac342c063eeefb,مطعم وكبابجي ابن مصر,,29.4700312,30.9530671,,44,,['Barbecue restaurant'],"{'Saturday': 'Open 24 hours', 'Sunday': 'Open 24 hours', 'Monday': 'Open 24 hours', 'Tuesday': 'Open 24 hours', 'Wednesday': 'Open 24 hours', 'Thursday': 'Open 24 hours', 'Friday': 'Open 24 hours'}",,011 51500192,,,"مطعم وكبابجي ابن مصر، طاميه،بجوار الجنينه،امام اعدادي بنات, Madinet Tameyah, Tamiya, Faiyum Governorate 2963361",,EG,,restaurants
0x14599ee4d15b11bf:0xa2e6b624a41eba48,شطة shata spies,,29.4741357,30.9553548,$,84,Inexpensive,['Koshari restaurant'],"{'Saturday': 'Open 24 hours', 'Sunday': 'Open 24 hours', 'Monday': 'Open 24 hours', 'Tuesday': 'Open 24 hours', 'Wednesday': 'Open 24 hours', 'Thursday': 'Open 24 hours', 'Friday': 'Open 24 hours'}",51+ Photos,010 00555446,,,"شطة shata spies، 23, Tamya - Roda, Faiyum Governorate",,EG,,restaurants
0x14595d196a6efb79:0xbb419321d18bf032,Set El-Beet - ست البيت,,29.3970471,30.4937646,,1580,,['Restaurant'],"{'Saturday': '12–7\u202fAM', 'Sunday': 'Closed', 'Monday': 'Closed', 'Tuesday': 'Closed', 'Wednesday': 'Closed', 'Thursday': '8\u202fAM–7\u202fPM', 'Friday': '8\u202fAM–12\u202fAM'}",1043+ Photos,011 25920199,,,"Set El-Beet - ست البيت, Qaroun, إبشواى، Faiyum Governorate 2822622",,EG,,restaurants
0x1459a32038f644ed:0x1555bc13dcdb0c2a,مطعم و كافتريا اولاد همام,,29.5168728,31.0771827,,15,,['Coffee shop'],,15 Photos,011 22555553,,,"G38G+PVV مطعم و كافتريا اولاد همام, Monshaat Doctor El-Gammal, Tamiya, Faiyum Governorate 2978001",,EG,,restaurants
0x145840cf71b43e6d:0xc4938aa21c8525c0,Sofitel Legend Old Cataract Aswan,https://www.sofitel.accor.com,24.0822263,32.8879359,,8438,,['Hotel'],,13616+ Photos,010 22229071,,,"Sofitel Legend Old Cataract Aswan, Abtal El Tahrir Street, Sheyakhah Oula, Aswan 1, Aswan Governorate 81511",,EG,,restaurants
0x14584f25b1aa6341:0xed3eccd8686b8e59,Bahia Restaurant,,29.9813516,31.1088623,$$,882,Moderately expensive,['Egyptian restaurant'],"{'Saturday': '10\u202fAM–4\u202fAM', 'Sunday': '10\u202fAM–4\u202fAM', 'Monday': '10\u202fAM–4\u202fAM', 'Tuesday': '10\u202fAM–4\u202fAM', 'Wednesday': '10\u202fAM–4\u202fAM', 'Thursday': '10\u202fAM–4\u202fAM', 'Friday': '10\u202fAM–4\u202fAM'}",173+ Photos,010 50094206,,,"Bahia Restaurant, Al Haram, Giza Governorate 3510602",,EG,,restaurants
0x1459793e26190e51:0x5f1aba5821393745,Semsema Restaurant,,29.323719,30.830544,,7,,['Restaurant'],"{'Saturday': '9\u202fAM–2\u202fAM', 'Sunday': '10\u202fAM–12\u202fAM', 'Monday': '9\u202fAM–2\u202fAM', 'Tuesday': '9\u202fAM–2\u202fAM', 'Wednesday': '9\u202fAM–2\u202fAM', 'Thursday': '9\u202fAM–2\u202fAM', 'Friday': '9\u202fAM–2\u202fAM'}",3 Photos,010 66486963,,,"8RFJ+F6M Semsema Restaurant, مركز, الجامعة، Qesm Al Fayoum, First Al Faiyum, Faiyum Governorate 2933049",,EG,,restaurants
0x14595eafffffffff:0x4b5e1229cd8477fd,El Terrace Restaurant,,29.4840214,30.6545022,,,,['Restaurant'],"{'Saturday': 'Open 24 hours', 'Sunday': 'Open 24 hours', 'Monday': 'Open 24 hours', 'Tuesday': 'Open 24 hours', 'Wednesday': 'Open 24 hours', 'Thursday': 'Open 24 hours', 'Friday': 'Open 24 hours'}",,084 6830314,,,"El Terrace Restaurant, طريق بحيرة قارون، First Al Faiyum, Faiyum Governorate 2814001",,EG,,restaurants
0x145971d5d324021d:0x7380a25b203f6d95,Restaurant and Apartments (Abu Abdullah Habayeb),,29.4629172,30.7147797,$$,70,Moderately expensive,['Restaurant'],"{'Saturday': '10\u202fAM–4\u202fAM', 'Sunday': '10\u202fAM–4\u202fAM', 'Monday': '10\u202fAM–4\u202fAM', 'Tuesday': '10\u202fAM–4\u202fAM', 'Wednesday': '10\u202fAM–4\u202fAM', 'Thursday': '10\u202fAM–4\u202fAM', 'Friday': '10\u202fAM–4\u202fAM'}",76+ Photos,010 66468670,,,"Restaurant and Apartments (Abu Abdullah Habayeb), مدخل شكشوك، Ibsheway, Faiyum Governorate 2867108",,EG,,restaurants
0x1458554bf67f1205:0x9f6fc4f1ac8ee8fb,Food Core Restaurant,,29.887024,30.9218672,,5,,['Fast food restaurant'],,3 Photos,010 23790026,,,"VWPC+RP5 Food Core Restaurant, ahmed behairy St, قسم ثان, Giza Governorate 3252462",,EG,,restaurants
0x14597570b7786651:0xe87255d24b6acf17,مطعم الشامي,,29.503582,30.880408,,2,,['Chicken restaurant'],,,,,,مطعم الشامي، GV3J+FMP، قصر رشوان، مركز طامية، الفيوم 2958354،,,EG,,restaurants
0x1459a3d92d6a4c75:0x55bd4786378311c,مطعم الشيخ رضا,,29.5088216,31.0254758,,4,,['Chicken restaurant'],,Photos,,,,"G25G+G5H مطعم الشيخ رضا, Monshaat Doctor El-Gammal, Tamiya, Faiyum Governorate 2973672",,EG,,restaurants
0x145977539ab3d82b:0x813f1f3cfbf42a4d,مطعم بوخارست,,29.4551767,30.8372577,,3,,['Fast food restaurant'],"{'Saturday': 'Open 24 hours', 'Sunday': 'Open 24 hours', 'Monday': 'Open 24 hours', 'Tuesday': 'Open 24 hours', 'Wednesday': 'Open 24 hours', 'Thursday': 'Open 24 hours', 'Friday': 'Open 24 hours'}",,011 23961165,,,مطعم بوخارست، FR3P+VX، مدينة سنورس، مركز سنورس،، الفيوم 2956366،، مدينة سنورس، مركز سنورس، الفيوم 2956366،,,EG,,restaurants
0x14584f71c0d8a255:0xcf6659c0f2b5f060,Kroost restaurant,,29.9816906,31.0993329,,1,,"['Chicken restaurant', 'Restaurant']","{'Saturday': '12\u202fPM–2\u202fAM', 'Sunday': '12\u202fPM–2\u202fAM', 'Monday': '12\u202fPM–2\u202fAM', 'Tuesday': '12\u202fPM–2\u202fAM', 'Wednesday': '12\u202fPM–2\u202fAM', 'Thursday': '12\u202fPM–2\u202fAM', 'Friday': '12\u202fPM–2\u202fAM'}",Photos,010 06629121,,,"Kroost restaurant, 255أ شارع الضغط العالى, 2 حدائق الاهرام",,EG,,restaurants
0x145979af82fb6973:0x8f36985bfbbccb9,مطعم الفلاح فرع شارع الرملة _ Elfla7 Restaurant,https://www.facebook.com,29.3088933,30.8405631,,7,,['Restaurant'],"{'Saturday': '10\u202fAM–12\u202fAM', 'Sunday': '10\u202fAM–12\u202fAM', 'Monday': '10\u202fAM–12\u202fAM', 'Tuesday': '10\u202fAM–12\u202fAM', 'Wednesday': '10\u202fAM–12\u202fAM', 'Thursday': '10\u202fAM–12\u202fAM', 'Friday': '9\u202fAM–11:30\u202fPM'}",Photos,,,,"مطعم الفلاح فرع شارع الرملة _ Elfla7 Restaurant، دحدوره هدي, Qesm Al Fayoum, First Al Faiyum, Faiyum Governorate 63511",,EG,,restaurants
0x14584fdd28ca6617:0xd1f3325180e93ada,Khan Shaheen Restaurant,https://www.khanshaheen.com,29.9620769,31.0898548,$$,798,Moderately expensive,"['Pizza restaurant', 'Coffee shop', 'Delivery service', 'Fast food restaurant', 'Hookah bar', 'Takeout restaurant', 'Pie shop', 'Pizza delivery', 'Pizza takeaway', 'Restaurant']","{'Saturday': '9\u202fAM–5\u202fAM', 'Sunday': '9\u202fAM–5\u202fAM', 'Monday': '9\u202fAM–5\u202fAM', 'Tuesday': '9\u202fAM–5\u202fAM', 'Wednesday': '9\u202fAM–5\u202fAM', 'Thursday': '9\u202fAM–5\u202fAM', 'Friday': '9\u202fAM–5\u202fAM'}",73+ Photos,010 20400401,,,"Khan Shaheen Restaurant, Elgiesh Rd, Egypt, Giza Governorate 3510201",,EG,,restaurants
0x145975004edcd889:0x9cdc8902d3273a98,مطعم وكافيه القاضي,,29.4983686,30.861541,,2,,['Fast food restaurant'],"{'Saturday': '10\u202fAM–4\u202fAM', 'Sunday': '10\u202fAM–4\u202fAM', 'Monday': '10\u202fAM–4\u202fAM', 'Tuesday': '10\u202fAM–4\u202fAM', 'Wednesday': '10\u202fAM–4\u202fAM', 'Thursday': '10\u202fAM–4\u202fAM', 'Friday': '10\u202fAM–4\u202fAM'}",11 Photos,,,,"FVX6+8JV مطعم وكافيه القاضي, Monshaat Bani Othman, Sinnuris, Faiyum Governorate 2958179",,EG,,restaurants
0x14584b2a9b1b05eb:0x380285de532ecf66,Restaurants and caf,,29.8079027,31.2302852,,13,,['East Javanese restaurant'],"{'Saturday': 'Open 24 hours', 'Sunday': 'Open 24 hours', 'Monday': 'Open 24 hours', 'Tuesday': 'Open 24 hours', 'Wednesday': 'Open 24 hours', 'Thursday': 'Open 24 hours', 'Friday': 'Open 24 hours'}",Photos,011 50128542,,,"R65J+547 Restaurants and caf، طريق الجيش, Saqarah, Badrshein, Giza Governorate 3355021",,EG,,restaurants
0x1459a3c23460c7f5:0xce9fb2d01162767c,ابو اصاله,,29.5443096,30.9899063,,,,['Barbecue restaurant'],,,,,,"GXVQ+PXV ابو اصاله, Fanous, Tamiya, Faiyum Governorate 2973214",,EG,,restaurants
0x145978de7da36de7:0x22a02c917d0045d6,Neama Restaurant,,29.3151742,30.8550771,,,,['Restaurant'],,,012 22416723,,,"8V84+328 Neama Restaurant, المسلة، Qesm Al Fayoum, First Al Faiyum, Faiyum Governorate 2934334",,EG,,restaurants
0x1458531bf8e5d245:0x2482416822309143,Cooking Star Restaurant - Chef Mostafa,,29.8881644,31.067016,,3,,['Restaurant'],"{'Saturday': '11\u202fAM–2\u202fAM', 'Sunday': '11\u202fAM–2\u202fAM', 'Monday': '11\u202fAM–2\u202fAM', 'Tuesday': '11\u202fAM–2\u202fAM', 'Wednesday': '11\u202fAM–2\u202fAM', 'Thursday': '11\u202fAM–2\u202fAM', 'Friday': '11\u202fAM–2\u202fAM'}",33 Photos,011 22414546,,,"V3Q8+7R6 Cooking Star Restaurant - Chef Mostafa، الظهير الصحراوى لمحافظة الجيزة،, First 6th of October, Giza Governorate",,EG,,restaurants
0x14599f33ff367a2f:0x152f54b364b2f4b0,حلواني العبور (زلابيانو),,29.4765553,30.9597607,,1,,['Restaurant'],,2 Photos,,,,"FXG5+JWC حلواني العبور (زلابيانو), Madinet Tameyah, Tamiya, Faiyum Governorate 2963770",,EG,,restaurants
0x14595da6a356236d:0x9cfd5fe5059776aa,khan shebl restaurant,,29.3980297,30.4924047,,37,,['Restaurant'],"{'Saturday': '8\u202fAM–9:30\u202fPM', 'Sunday': '8\u202fAM–9\u202fPM', 'Monday': '8\u202fAM–9\u202fPM', 'Tuesday': '8\u202fAM–9\u202fPM', 'Wednesday': '8\u202fAM–9\u202fPM', 'Thursday': '8\u202fAM–10\u202fPM', 'Friday': '8\u202fAM–10\u202fPM'}",261+ Photos,012 12021571,,,"khan shebl restaurant، عزبة تونسي، قارون، إبشواى, Youssef Al Seddik, Faiyum Governorate",,EG,,restaurants
0x145965a51a143fd1:0x6b853146ca42fc21,مطعم و كافيه اوسكار,,29.3615141,30.6838032,,2,,['Fine dining restaurant'],"{'Saturday': 'Open 24 hours', 'Sunday': 'Open 24 hours', 'Monday': 'Open 24 hours', 'Tuesday': 'Open 24 hours', 'Wednesday': 'Open 24 hours', 'Thursday': 'Open 24 hours', 'Friday': 'Open 24 hours'}",26 Photos,011 17772414,,,"مطعم و كافيه اوسكار, El-Gomhoreya, Madinet Ibsheway, Ibsheway, Faiyum Governorate 2863468",,EG,,restaurants
0x145977b0c86f526b:0xd8b7366ce90fea9f,Eissas' Sons restaurants,,29.4105101,30.8664022,$$,103,Moderately expensive,['Chicken restaurant'],"{'Saturday': '10\u202fAM–11:15\u202fPM', 'Sunday': '10\u202fAM–11:15\u202fPM', 'Monday': '10\u202fAM–11:15\u202fPM', 'Tuesday': '10\u202fAM–11:15\u202fPM', 'Wednesday': '10\u202fAM–11:15\u202fPM', 'Thursday': '10\u202fAM–11:15\u202fPM', 'Friday': 'Closed'}",23 Photos,,,,"Eissas' Sons restaurants, Madinet Senouris, Sinnuris, Faiyum Governorate 2951923",,EG,,restaurants
0x145979251d8aaba1:0x68c2ab05c2b20668,Aldawaar Restaurant,,29.3136305,30.8402474,$$,344,Moderately expensive,['Izakaya restaurant'],,80+ Photos,012 25805657,,,"Aldawaar Restaurant, Qesm Al Fayoum, First Al Faiyum, Faiyum Governorate 2933143",,EG,,restaurants
0x14597950bfb63bd5:0xa1ccfc8e697fdc7e,Shamitzza Restaurant,,29.3084021,30.8428497,,7,,['Shawarma restaurant'],"{'Saturday': '11\u202fAM–4\u202fAM', 'Sunday': '11\u202fAM–4\u202fAM', 'Monday': '11\u202fAM–4\u202fAM', 'Tuesday': '11\u202fAM–4\u202fAM', 'Wednesday': '11\u202fAM–4\u202fAM', 'Thursday': '11\u202fAM–4\u202fAM', 'Friday': '11\u202fAM–4\u202fAM'}",12 Photos,010 70002599,,,"8R5V+949 Shamitzza Restaurant، دلة - برج الرفاعي - بجوار كافيه مومينتو, Qesm Al Fayoum, Second Al Faiyum, Faiyum Governorate 2922443",,EG,,restaurants
0x145978dc2651504d:0xaa0a05935172ebfb,Top Chef Restaurant,https://www.facebook.com,29.3141136,30.8558408,$$,116,Moderately expensive,['Pizza restaurant'],"{'Saturday': '10\u202fAM–2\u202fAM', 'Sunday': '10\u202fAM–2\u202fAM', 'Monday': '10\u202fAM–2\u202fAM', 'Tuesday': '10\u202fAM–2\u202fAM', 'Wednesday': '10\u202fAM–2\u202fAM', 'Thursday': '10\u202fAM–2\u202fAM', 'Friday': '10\u202fAM–2\u202fAM'}",8 Photos,010 03881789,,,"8V74+J8W Top Chef Restaurant, Mahmoud Seadawai, Qesm Al Fayoum, First Al Faiyum, Faiyum Governorate 2934337",,EG,,restaurants
0x145995f0f74bc4d9:0xd6ed3355e256b670,Hussein Khalil Restaurant,,29.3973806,31.2460418,,10,,['Restaurant'],"{'Saturday': '8\u202fAM–3\u202fAM', 'Sunday': '8\u202fAM–3\u202fAM', 'Monday': '8\u202fAM–3\u202fAM', 'Tuesday': '8\u202fAM–3\u202fAM', 'Wednesday': '8\u202fAM–3\u202fAM', 'Thursday': '7:30\u202fAM–3\u202fAM', 'Friday': '9\u202fAM–3\u202fAM'}",,011 22670778,,,"96WW+XC3 Hussein Khalil Restaurant، Unnamed Road، الحلف الغربي، الواحات البحرية،, El Wahat El Bahariya, Giza Governorate",,EG,,restaurants
0x14599f1eb7cb0457:0x79c4118f4311bc1f,مطعم بروست ومشويات إبن البلد,,29.4766438,30.9598914,,44,,['Barbecue restaurant'],"{'Saturday': 'Open 24 hours', 'Sunday': 'Open 24 hours', 'Monday': 'Open 24 hours', 'Tuesday': 'Open 24 hours', 'Wednesday': 'Open 24 hours', 'Thursday': 'Open 24 hours', 'Friday': 'Open 24 hours'}",10 Photos,011 55520055,,,"مطعم بروست ومشويات إبن البلد، شارع 11 يوليو بجوار مسجد النصر, Madinet Tameyah, Tamiya, Faiyum Governorate 2963601",,EG,,restaurants
0x1459a38a67857963:0xccc0388d4df3a501,كافتريا الحسن والحسين الطريق الغربي اتجاه القاهره,,29.5162937,31.0773708,,180,,['Fast food restaurant'],"{'Saturday': 'Open 24 hours', 'Sunday': 'Open 24 hours', 'Monday': 'Open 24 hours', 'Tuesday': 'Open 24 hours', 'Wednesday': 'Open 24 hours', 'Thursday': 'Open 24 hours', 'Friday': 'Open 24 hours'}",15 Photos,,,,"G38G+GW9 كافتريا الحسن والحسين الطريق الغربي اتجاه القاهره، أسوان - الجيزة، الظهير الصحراوى لمحافظة الفيوم، محافظة بني سويف،, Tamiya",,EG,,restaurants
0x145855e8db059799:0xf3990c8af74eb035,Ala Kefak Restaurant,,29.9380337,30.9138309,,2,,['Restaurant'],"{'Saturday': '8\u202fAM–2\u202fAM', 'Sunday': '8\u202fAM–2\u202fAM', 'Monday': '8\u202fAM–2\u202fAM', 'Tuesday': '8\u202fAM–2\u202fAM', 'Wednesday': '8\u202fAM–2\u202fAM', 'Thursday': '8\u202fAM–2\u202fAM', 'Friday': '8\u202fAM–2\u202fAM'}",,011 59553408,,,"Ala Kefak Restaurant, 122 Ibrahim Al Mazni - Al Akhbar, 6th of October City (2), Giza Governorate 12115",,EG,,restaurants
0x1459750959beeee3:0x40c958fafa857322,دهب قارون مطعم وبلاج وقاعة افراح,,29.4816549,30.8151383,,15,,['Restaurant'],"{'Saturday': 'Open 24 hours', 'Sunday': 'Open 24 hours', 'Monday': 'Open 24 hours', 'Tuesday': 'Open 24 hours', 'Wednesday': 'Open 24 hours', 'Thursday': 'Open 24 hours', 'Friday': 'Open 24 hours'}",15 Photos,010 05375788,,,"دهب قارون مطعم وبلاج وقاعة افراح، طريق بحيرة قارون السياحي، منشأة سنورس، سنورس،, Sinnuris, Faiyum Governorate",,EG,,restaurants
0x14599f67f260a937:0x6d68ac8e9da3586b,مطعم افندينا للمشويات,,29.476466,30.9595715,,3,,['Barbecue restaurant'],"{'Saturday': 'Open 24 hours', 'Sunday': 'Open 24 hours', 'Monday': 'Open 24 hours', 'Tuesday': 'Open 24 hours', 'Wednesday': 'Open 24 hours', 'Thursday': 'Open 24 hours', 'Friday': 'Open 24 hours'}",,011 54167464,,,"مطعم افندينا للمشويات، شارع 23 يليوبجانب تمثال ابو شقره, Faiyum Governorate",,EG,,restaurants
0x1459795a9e6bca5b:0xded9faebfd6ba721,كافيه ميرامار Miramar cafe and restaurant,,29.3292354,30.8597901,,13,,['Buffet restaurant'],"{'Saturday': 'Open 24 hours', 'Sunday': 'Open 24 hours', 'Monday': 'Open 24 hours', 'Tuesday': 'Open 24 hours', 'Wednesday': 'Open 24 hours', 'Thursday': 'Open 24 hours', 'Friday': 'Open 24 hours'}",15 Photos,010 90848961,,,كافيه ميرامار Miramar cafe and restaurant، أول طريق مدرسة الزراعة ،أمام مخزن قباني الفيوم، 63511,,EG,,restaurants
0x145855e8db059799:0xe3ca5bc59ad2fdbb,El Captain Restaurant,,29.9380216,30.9139218,,,,['Restaurant'],,,02 38312196,,,"El Captain Restaurant, 122 Ibrahim Al Mazni - Al Akhbar, 6th of October City (2), Giza Governorate 12115",,EG,,restaurants
0x14599ee4cfaa2c51:0xecfc7f7ac3753327,Crepe Campbell Ahmed Lahibi,https://www.facebook.com,29.4738219,30.9537706,$$,299,Moderately expensive,"['Creperie', 'Fast food restaurant']","{'Saturday': 'Open 24 hours', 'Sunday': 'Open 24 hours', 'Monday': 'Open 24 hours', 'Tuesday': 'Open 24 hours', 'Wednesday': 'Open 24 hours', 'Thursday': 'Open 24 hours', 'Friday': 'Open 24 hours'}",32 Photos,010 00887025,,,"Crepe Campbell Ahmed Lahibi, 23 يوليو-11، مدينة طامية، طامية، الفيوم, 11-Jul, Madinet Tameyah, Tamiya, Faiyum Governorate",,EG,,restaurants
0x14599ffd0d608ef1:0x1b4c958fb93646d6,كشري المصطفى 2,,29.4740036,30.9549829,$,25,Inexpensive,['Koshari restaurant'],"{'Saturday': 'Open 24 hours', 'Sunday': 'Open 24 hours', 'Monday': 'Open 24 hours', 'Tuesday': 'Open 24 hours', 'Wednesday': 'Open 24 hours', 'Thursday': 'Open 24 hours', 'Friday': 'Open 24 hours'}",11 Photos,012 20533318,,,"كشري المصطفى 2، 23 يوليو-11، مدينة طامية، طامية،, Faiyum Governorate",,EG,,restaurants
0x1459a34ab5063dcf:0xd6336de67f28e297,أبو زياد للمأكولات الشعبية,,29.5094593,31.0254141,,,,['Breakfast restaurant'],,,,,,"G25G+J3W أبو زياد للمأكولات الشعبية, Kafr Al Maslat - Tamya, Monshaat Doctor El-Gammal, Tamiya, Faiyum Governorate 2973648",,EG,,restaurants
0x14597f007d70a22b:0x85ce681991bc5cd6,Mastai cafe & restaurant,,29.2945054,30.8356247,,,,['Restaurant'],,,010 03114208,,,"7RVP+R65 Mastai cafe & restaurant, امام ملف المدابغ، Monshaat Al Fayoum, Second Al Faiyum, Faiyum Governorate 2920030",,EG,,restaurants
0x1459a16874d3df79:0xa7080be2a686dbdf,مطعم ابوسيف الكبابجي,,29.5376085,30.9781137,,1,,['Fast food restaurant'],,Photos,011 52951594,,,"GXQH+26X مطعم ابوسيف الكبابجي، مدرسة خلوصي الابتدائيه، قرية فانوس المنشية البحرية بجوار, Fanous, Tamiya, Faiyum Governorate 2973117",,EG,,restaurants
0x1458550fddb2ad15:0xc2c9366788202ea2,مطعم لذة - Lazza Restaurant,,29.8876111,30.9172732,,4,,['Takeout restaurant'],"{'Saturday': '10\u202fAM–2\u202fAM', 'Sunday': '10\u202fAM–2\u202fAM', 'Monday': '10\u202fAM–2\u202fAM', 'Tuesday': '10\u202fAM–2\u202fAM', 'Wednesday': '10\u202fAM–2\u202fAM', 'Thursday': '10\u202fAM–2\u202fAM', 'Friday': '12\u202fPM–2\u202fAM'}",3 Photos,010 00217866,,,"مطعم لذة - Lazza Restaurant، أمام كافية out&Back، مول 1، كمبوند، دجلة بالمز, Giza Governorate",,EG,,restaurants
0x1459792f3d32a939:0x1d77c380301bca50,Arabisek Restaurant,,29.3084021,30.8428497,,13,,"['Fast food restaurant', 'Restaurant']","{'Saturday': '9\u202fAM–2\u202fAM', 'Sunday': '9\u202fAM–2\u202fAM', 'Monday': '9\u202fAM–2\u202fAM', 'Tuesday': '9\u202fAM–2\u202fAM', 'Wednesday': '9\u202fAM–2\u202fAM', 'Thursday': '9\u202fAM–2\u202fAM', 'Friday': '9\u202fAM–2\u202fAM'}",5 Photos,010 05085788,,,"Arabisek Restaurant, Qesm Al Fayoum, Second Al Faiyum, Faiyum Governorate 2922443",,EG,,restaurants
0x1459a5005012334d:0xe077dfb709f2d1ca,مطعم المسافر الدمشقي مندي ومعجنات,,29.5894143,31.0441301,,6,,['Chicken restaurant'],"{'Saturday': 'Open 24 hours', 'Sunday': 'Open 24 hours', 'Monday': 'Open 24 hours', 'Tuesday': 'Open 24 hours', 'Wednesday': 'Open 24 hours', 'Thursday': 'Open 24 hours', 'Friday': 'Open 24 hours'}",29 Photos,010 16141731,,,"H2QV+PMJ مطعم المسافر الدمشقي مندي ومعجنات, Al Mazatli, Tamiya, Faiyum Governorate 2977224",,EG,,restaurants
0x1459673bfea13c3d:0xfd71fcfef463fa13,مطعم (el3omda restaurant ) العمده,,29.3841906,30.5607827,,4,,['Barbecue restaurant'],"{'Saturday': '10\u202fAM–2\u202fAM', 'Sunday': 'Closed', 'Monday': '10\u202fAM–12\u202fAM', 'Tuesday': '10\u202fAM–12\u202fAM', 'Wednesday': '10\u202fAM–12\u202fAM', 'Thursday': '10\u202fAM–12\u202fAM', 'Friday': '10\u202fAM–2\u202fAM'}",3 Photos,010 23903318,,,"9HM6+M8F مطعم (el3omda restaurant ) العمده، المشرك قبلي، المشرك، مركز أبشواى،, Al Shawashna, Faiyum Governorate",,EG,,restaurants
0x1459a18f9a5909ff:0x79c2a0fc8e8973ed,كشري ابو حمزة,,29.5369915,30.9799418,,3,,['Koshari restaurant'],,13 Photos,011 48418827,,,"GXPH+QXW كشري ابو حمزة، فانوس، مركز طامية،، فانوس، مركز طامية، الفيوم،, Fanous, Faiyum Governorate",,EG,,restaurants
0x1459779dee26d1e1:0xd9bfebd266bc5fde,اسماك علي اللباد,,29.4134906,30.8642133,,5,,['Seafood restaurant'],,,,,,"CV77+9MW اسماك علي اللباد, Madinet Senouris, Sinnuris, Faiyum Governorate 2956414",,EG,,restaurants
0x14599f003a7f4d49:0x383e1931f488e434,Resto Coffee&Mini Market,,29.4735898,30.9532859,,,,['Coffee shop'],,,,,,"FXF3+C8M Resto Coffee&Mini Market, Madinet Tameyah, Tamiya, Faiyum Governorate 2970281",,EG,,restaurants
0x1459b77837ee60dd:0x8028ff1918b9e665,Barista Cafr & Restaurant,https://www.facebook.com,29.6202063,31.2511096,,6,,['Izakaya restaurant'],,21 Photos,011 02411144,,,"Barista Cafr & Restaurant, طريق أسوان الزراعي الغربي، مدينة العياط، العياط، الجيزة،، مدينة العياط، العياط، الجيزة،،, Madinet Al Ayat, El Ayyat, Giza Governorate",,EG,,restaurants
0x14597718ee721abd:0xfc68adfe229b8acf,كشري وطواجن اسلام الهضبه,,29.4060725,30.8667633,,,,['Koshari restaurant'],,3 Photos,010 22969691,,,"CV48+CPC كشري وطواجن اسلام الهضبه, Mobarak, Madinet Senouris, Sinnuris, Faiyum Governorate 2952232",,EG,,restaurants
0x145979005005ed0f:0x18ad41c4394a13dd,مطعم الرحمن,,29.354788,30.8062016,,,,['Restaurant'],"{'Saturday': 'Open 24 hours', 'Sunday': 'Open 24 hours', 'Monday': 'Open 24 hours', 'Tuesday': 'Open 24 hours', 'Wednesday': 'Open 24 hours', 'Thursday': 'Open 24 hours', 'Friday': 'Open 24 hours'}",Photos,010 30198529,,,"9R34+WF8 مطعم الرحمن, Bani Saleh, Faiyum, Faiyum Governorate 2945411",,EG,,restaurants
0x1459bd0010fbbbb9:0xc6d5bde153d472b2,مطعم وكفترايا الملكه,,29.4935059,31.0869027,,,,['Buffet restaurant'],,,,,,"F3VP+CQ2 مطعم وكفترايا الملكه، الصحراوى الغربى, Tamiya, Faiyum Governorate 2978001",,EG,,restaurants
0x1459a3b45840ecd5:0x38536037eed05a59,حلواني كنوز,,29.5220397,31.0737079,,8,,['Sweets and dessert buffet'],"{'Saturday': 'Open 24 hours', 'Sunday': 'Open 24 hours', 'Monday': 'Open 24 hours', 'Tuesday': 'Open 24 hours', 'Wednesday': 'Open 24 hours', 'Thursday': 'Open 24 hours', 'Friday': 'Open 24 hours'}",12 Photos,011 26841172,,,"G3CF+RF8 حلواني كنوز، الظهير الصحراوى لمحافظة الفيوم،, Tamiya, Faiyum Governorate",,EG,,restaurants
0x1459bd423bc396c3:0xe9f2f6e8420b38b3,مطعم وكافيه دقدق,,29.4889853,31.087532,$,171,Inexpensive,['Izakaya restaurant'],,8 Photos,,,,"مطعم وكافيه دقدق, Asyuit Desert - Cairo Rd, Tamiya, Faiyum Governorate 2977027",,EG,,restaurants
0x145840cf118e61cf:0xaf4aee1a5598653d,InterContinental Cairo Semiramis by IHG,https://www.ihg.com,30.042987,31.2324871,,51720,,"['Hotel', 'Conference center', 'Wedding venue']",,18089+ Photos,02 27988000,,,"InterContinental Cairo Semiramis by IHG, Nile Corniche, Qasr Ad Dobarah, Qasr El Nil, Cairo Governorate 11511",,EG,,restaurants
0x14599f34719ddf99:0xef232577d5e8169,كشري المصطفي 1,,29.4760307,30.959003,,15,,['Koshari restaurant'],"{'Saturday': 'Open 24 hours', 'Sunday': 'Open 24 hours', 'Monday': 'Open 24 hours', 'Tuesday': 'Open 24 hours', 'Wednesday': 'Open 24 hours', 'Thursday': 'Open 24 hours', 'Friday': 'Open 24 hours'}",Photos,,,,كشري المصطفي 1، يوليو-11، مدينة طامية، مركز طامية، الفيوم،,,EG,,restaurants
0x14599f0056dfc0e3:0xd1532ca67253e20f,مطعم مشويات ابن البلد,,29.4693863,30.9505233,,3,,['Barbecue restaurant'],"{'Saturday': 'Open 24 hours', 'Sunday': 'Open 24 hours', 'Monday': 'Open 24 hours', 'Tuesday': 'Open 24 hours', 'Wednesday': 'Open 24 hours', 'Thursday': 'Open 24 hours', 'Friday': 'Open 24 hours'}",5 Photos,010 09447671,,,"FX92+Q62 مطعم مشويات ابن البلد, Madinet Tameyah, Tamiya, Faiyum Governorate 2963361",,EG,,restaurants
0x14599ff522fea369:0xa0c71788a3fe1514,شوكة و سكينة,,29.476466,30.9595715,,,,['Restaurant'],"{'Saturday': '1\u202fAM–6\u202fPM', 'Sunday': 'Closed', 'Monday': 'Closed', 'Tuesday': 'Closed', 'Wednesday': 'Closed', 'Thursday': 'Closed', 'Friday': 'Closed'}",,011 46360903,,,"FXG5+HRP شوكة و سكينة, Madinet Tameyah, Tamiya, Faiyum Governorate 2963770",,EG,,restaurants
0x145993b7cdb680af:0x4ed9236ed72bf7b8,Family girls coffee and restaurant,,29.3429977,31.2072985,,4,,['Izakaya restaurant'],"{'Saturday': 'Open 24 hours', 'Sunday': '12\u202fPM–12\u202fAM', 'Monday': '12\u202fPM–12\u202fAM', 'Tuesday': '12\u202fPM–12\u202fAM', 'Wednesday': '12\u202fPM–12\u202fAM', 'Thursday': '12\u202fPM–12\u202fAM', 'Friday': '12\u202fPM–12\u202fAM'}",10 Photos,011 40718180,,,"86V4+5WV Family girls coffee and restaurant، الواسطى، مدينة الواسطى، الواسطى، محافظة بني سويف،, El Wasta",,EG,,restaurants
0x145855e8db059799:0xad39632d8fd0ce8,Umm Mohamed Restaurant,,29.9380216,30.9139218,,,,['Restaurant'],,,010 68865139,,,"Umm Mohamed Restaurant, 122 Ibrahim Al Mazni - Al Akhbar, 6th of October City (2), Giza Governorate 12115",,EG,,restaurants
0x14597713679119c1:0x905cb97f7968457d,مضيفة الكبير,,29.4541987,30.8377676,,4,,['Restaurant'],"{'Saturday': 'Closed', 'Sunday': '4:30\u202fPM–2\u202fAM', 'Monday': '5\u202fPM–2\u202fAM', 'Tuesday': '5\u202fPM–2\u202fAM', 'Wednesday': '5\u202fPM–2\u202fAM', 'Thursday': '5\u202fPM–2\u202fAM', 'Friday': '5\u202fPM–2\u202fAM'}",Photos,,,,"مضيفة الكبير، طريق الشوبك, Faiyum Governorate",,EG,,restaurants
0x14599d0077d6d4c3:0x1dcf23c6fe26c479,إيطاليانو,,29.4222886,30.9250987,,,,['Pizza restaurant'],,,,,,"CWCG+V2Q إيطاليانو, Maasaret Sawi, Tamiya, Faiyum Governorate 2963240",,EG,,restaurants
0x1459793e1a3661fb:0x16fd1a608a7d6834,Abo Ali Restaurant,,29.3231129,30.8316537,$,114,Inexpensive,['Falafel restaurant'],"{'Saturday': 'Open 24 hours', 'Sunday': 'Open 24 hours', 'Monday': 'Open 24 hours', 'Tuesday': 'Open 24 hours', 'Wednesday': 'Open 24 hours', 'Thursday': 'Open 24 hours', 'Friday': 'Open 24 hours'}",15 Photos,,,,"Abo Ali Restaurant, Qesm Al Fayoum, First Al Faiyum, Faiyum Governorate 2933049",,EG,,restaurants
0x1459790058c69fd7:0xde61c3c083f62f01,Red sea restaurant,,29.3172592,30.8632134,,,,['Seafood restaurant'],,,,,,"Red sea restaurant، اول شارع نادى قارون الرئيسى, Qesm Al Fayoum, First Al Faiyum, Faiyum Governorate 2934371",,EG,,restaurants
0x1458539860951151:0x987988756c5f8996,Faris Elbahr Fish Restaurant,,29.8880997,31.0663826,,51,,['Fish & chips restaurant'],"{'Saturday': '11\u202fAM–11\u202fPM', 'Sunday': '11\u202fAM–11\u202fPM', 'Monday': '11\u202fAM–11\u202fPM', 'Tuesday': '11\u202fAM–11\u202fPM', 'Wednesday': '11\u202fAM–11\u202fPM', 'Thursday': '11\u202fAM–11\u202fPM', 'Friday': '11\u202fAM–11\u202fPM'}",15 Photos,015 51622005,,,"V3Q8+6HJ Faris Elbahr Fish Restaurant، Unnamed Road, الجيزة،, First 6th of October",,EG,,restaurants
0x145979b5e8de5217:0x27f01eb45cbce794,Elfala7 Restaurant,,29.3131127,30.8450067,,178,,['Izakaya restaurant'],"{'Saturday': '10\u202fAM–3\u202fAM', 'Sunday': '10\u202fAM–3\u202fAM', 'Monday': '10\u202fAM–3\u202fAM', 'Tuesday': '10\u202fAM–3\u202fAM', 'Wednesday': '10\u202fAM–3\u202fAM', 'Thursday': '10\u202fAM–3\u202fAM', 'Friday': '10\u202fAM–3\u202fAM'}",71+ Photos,010 10734747,,,"8R7W+62R Elfala7 Restaurant, Mohye El-Deen Abou El-Ezz, Qesm Al Fayoum, First Al Faiyum, Faiyum Governorate 2934008",,EG,,restaurants
0x1459a3b9109d3f1f:0x5b91ac6cb21b2f97,العمده غانم الشريف,,29.5443911,30.9901759,,,,['Sandwich shop'],,,,,,"GXVR+Q33 العمده غانم الشريف، كفر المسلات - طامية، فانوس، مركز خلوصي طامية،، كفر المسلات - طامية، الفيوم،, Tamiya",,EG,,restaurants
0x145855c24853688f:0x8be322f8e30c4643,Um Hassan Sudanese Restaurant,,29.9339529,30.9207249,$,39,Inexpensive,['Restaurant'],"{'Saturday': '9\u202fAM–10\u202fPM', 'Sunday': '9\u202fAM–10\u202fPM', 'Monday': '9\u202fAM–10\u202fPM', 'Tuesday': '9\u202fAM–10\u202fPM', 'Wednesday': '9\u202fAM–10\u202fPM', 'Thursday': '9\u202fAM–10\u202fPM', 'Friday': '9\u202fAM–10\u202fPM'}",6 Photos,,,,"Um Hassan Sudanese Restaurant, 33 Ibrahim Abd Al Kader Al Mazni - Al Issaaf, 6th of October City (2), Giza Governorate 3225233",,EG,,restaurants
0x145823bb7a508d05:0x7c4ddf4f6e525b76,Lexie's,https://www.lexiesrestaurant.com,30.0243786,31.4540176,,627,,"['Italian restaurant', 'Restaurant']",,346+ Photos,012 85818590,,,"Lexie's, El-Tessen street Lakeview, Cairo Governorate 11835",,EG,,restaurants
0x14590bf91383b22d:0xa560c2898e755da,كشري السخن,,29.5538902,30.8777405,,12,,['Koshari restaurant'],,Photos,,,,"كشري السخن، الموقف, Al Gemhoureya, Tamiya, Faiyum Governorate 2975207",,EG,,restaurants
0x145841591f199745:0x2a036e0a51a57d3a,Nox,https://www.ritzcarlton.com,30.0461099,31.2323857,,242,,"['Bar', 'Night club', 'Pub']",,149+ Photos,012 89011168,,,"Nox، 1113 Corniche El Nil St, Downtown",,EG,,restaurants
0x145855edc524a111:0x4b76661d1d9589a,Ebn El Balad Restaurant,,29.9284826,30.9188372,,3,,['Restaurant'],,2 Photos,0216860,,,"WWH9+9GW Ebn El Balad Restaurant, Mall of Egypt, 6th of October City (2), Giza Governorate 3226010",,EG,,restaurants
0x1458408f2560cfcd:0xa2fd14a1351f6322,Lobby Lounge,https://www.fourseasons.com,30.0362362,31.2294568,,108,,"['Restaurant', 'Cocktail bar', 'Lounge', 'Piano bar', 'Cafe', 'Tea house']",,22 Photos,02 27912626,,,"Lobby Lounge, El Nil، 1089 Nile Corniche, Qasr El Nil, Cairo Governorate 11519",,EG,,restaurants
0x1459a3b81c6f742d:0x9d6abd0e0b92d4b6,ريست,,29.5183371,31.0743701,,,,['Restaurant'],,,,,,"G39F+8PC ريست, Tamiya, Beni Suef Governorate 2977174",,EG,,restaurants
0x1459a3d29f1fff8f:0xa7bf37a415ea6b73,El Hasan We El Hussein,,29.5222222,31.0730385,,139,,['Restaurant'],,22 Photos,,,,"G3CF+V6M El Hasan We El Hussein, Aswan - Giza, Tamiya, Beni Suef Governorate 2977183",,EG,,restaurants
